[{"id": "X19jig0ubkRVdHdOup5onQ", "alias": "ramen-utsuke-baltimore-2", "name": "Ramen Utsuke", "image_url": "https://s3-media2.fl.yelpcdn.com/bphoto/BLOd7qubS5Th6ZzFpvsj5Q/o.jpg", "is_closed": false, "url": "https://www.yelp.com/biz/ramen-utsuke-baltimore-2?adjust_creative=bdjMmkM5eh5bUOeX_Vuivw&utm_campaign=yelp_api_v3&utm_medium=api_v3_business_search&utm_source=bdjMmkM5eh5bUOeX_Vuivw", "review_count": 463, "categories": [{"alias": "ramen", "title": "Ramen"}], "rating": 4.4, "coordinates": {"latitude": 39.28356027844324, "longitude": -76.61353777398415}, "transactions": ["pickup", "delivery"], "price": "$$", "location": {"address1": "414 Light St", "address2": "Ste 103", "address3": null, "city": "Baltimore", "zip_code": "21202", "country": "US", "state": "MD", "display_address": ["414 Light St", "Ste 103", "Baltimore, MD 21202"]}, "phone": "+14435632977", "display_phone": "(443) 563-2977", "distance": 2886.661832253617}, {"id": "JY72TrhFESLIJsXz5Na_iA", "alias": "toki-underground-baltimore", "name": "Toki Underground", "image_url": "https://s3-media4.fl.yelpcdn.com/bphoto/8JPqZhwfbqPcJ5bmKQSh8w/o.jpg", "is_closed": false, "url": "https://www.yelp.com/biz/toki-underground-baltimore?adjust_creative=bdjMmkM5eh5bUOeX_Vuivw&utm_campaign=yelp_api_v3&utm_medium=api_v3_business_search&utm_source=bdjMmkM5eh5bUOeX_Vuivw", "review_count": 80, "categories": [{"alias": "ramen", "title": "Ramen"}, {"alias": "cocktailbars", "title": "Cocktail Bars"}], "rating": 4.5, "coordinates": {"latitude": 39.321619, "longitude": -76.609174}, "transactions": ["delivery", "restaurant_reservation", "pickup"], "price": "$$", "location": {"address1": "2731 Greenmount Ave", "address2": "", "address3": null, "city": "Baltimore", "zip_code": "21218", "country": "US", "state": "MD", "display_address": ["2731 Greenmount Ave", "Baltimore, MD 21218"]}, "phone": "+14434495392", "display_phone": "(443) 449-5392", "distance": 1370.557672577759}, {"id": "wwfTFc9B_cKGE0sg-_533A", "alias": "kippo-ramen-baltimore", "name": "Kippo Ramen", "image_url": "https://s3-media2.fl.yelpcdn.com/bphoto/RXcalJmxIXd7dTCT1cA4GA/o.jpg", "is_closed": false, "url": "https://www.yelp.com/biz/kippo-ramen-baltimore?adjust_creative=bdjMmkM5eh5bUOeX_Vuivw&utm_campaign=yelp_api_v3&utm_medium=api_v3_business_search&utm_source=bdjMmkM5eh5bUOeX_Vuivw", "review_count": 680, "categories": [{"alias": "ramen", "title": "Ramen"}, {"alias": "soup", "title": "Soup"}], "rating": 4.4, "coordinates": {"latitude": 39.2841531081, "longitude": -76.5935978293}, "transactions": ["pickup", "delivery"], "price": "$$", "location": {"address1": "606 S Bdwy", "address2": "", "address3": "", "city": "Baltimore", "zip_code": "21231", "country": "US", "state": "MD", "display_address": ["606 S Bdwy", "Baltimore, MD 21231"]}, "phone": "+16672124841", "display_phone": "(667) 212-4841", "distance": 3094.473885379635}, {"id": "B82cpig_hNiBsM77tXMQmA", "alias": "kajiken-baltimore", "name": "Kajiken", "image_url": "https://s3-media3.fl.yelpcdn.com/bphoto/DBalZZeaQEW65jmT2phyDw/o.jpg", "is_closed": false, "url": "https://www.yelp.com/biz/kajiken-baltimore?adjust_creative=bdjMmkM5eh5bUOeX_Vuivw&utm_campaign=yelp_api_v3&utm_medium=api_v3_business_search&utm_source=bdjMmkM5eh5bUOeX_Vuivw", "review_count": 92, "categories": [{"alias": "ramen", "title": "Ramen"}], "rating": 4.5, "coordinates": {"latitude": 39.327879, "longitude": -76.616392}, "transactions": [], "location": {"address1": "7 E 33rd St", "address2": "", "address3": null, "city": "Baltimore", "zip_code": "21218", "country": "US", "state": "MD", "display_address": ["7 E 33rd St", "Baltimore, MD 21218"]}, "phone": "+14438354617", "display_phone": "(443) 835-4617", "distance": 2167.559286580396}, {"id": "6Pgn8ON83YE-cTPoOMCm-A", "alias": "dashi-ramen-baltimore", "name": "Dashi Ramen", "image_url": "https://s3-media1.fl.yelpcdn.com/bphoto/9nkZptV7pnDbBGml_CICaQ/o.jpg", "is_closed": false, "url": "https://www.yelp.com/biz/dashi-ramen-baltimore?adjust_creative=bdjMmkM5eh5bUOeX_Vuivw&utm_campaign=yelp_api_v3&utm_medium=api_v3_business_search&utm_source=bdjMmkM5eh5bUOeX_Vuivw", "review_count": 8, "categories": [{"alias": "ramen", "title": "Ramen"}, {"alias": "noodles", "title": "Noodles"}], "rating": 5.0, "coordinates": {"latitude": 39.2768302386569, "longitude": -76.6132459}, "transactions": ["pickup", "delivery"], "location": {"address1": "1065 S Charles St", "address2": null, "address3": "", "city": "Baltimore", "zip_code": "21230", "country": "US", "state": "MD", "display_address": ["1065 S Charles St", "Baltimore, MD 21230"]}, "phone": "+13016511349", "display_phone": "(301) 651-1349", "distance": 3627.044771950274}, {"id": "QUJMPZ791jmep_DRvl5I3g", "alias": "akira-ramen-and-izakaya-baltimore-2", "name": "Akira Ramen & Izakaya", "image_url": "https://s3-media4.fl.yelpcdn.com/bphoto/AsP3NcGYBNu4lTunBv8NoQ/o.jpg", "is_closed": false, "url": "https://www.yelp.com/biz/akira-ramen-and-izakaya-baltimore-2?adjust_creative=bdjMmkM5eh5bUOeX_Vuivw&utm_campaign=yelp_api_v3&utm_medium=api_v3_business_search&utm_source=bdjMmkM5eh5bUOeX_Vuivw", "review_count": 196, "categories": [{"alias": "ramen", "title": "Ramen"}], "rating": 4.0, "coordinates": {"latitude": 39.27701, "longitude": -76.56507}, "transactions": ["pickup", "delivery"], "price": "$$", "location": {"address1": "3731 Boston St", "address2": null, "address3": "", "city": "Baltimore", "zip_code": "21224", "country": "US", "state": "MD", "display_address": ["3731 Boston St", "Baltimore, MD 21224"]}, "phone": "+14434384722", "display_phone": "(443) 438-4722", "distance": 5273.753560849846}, {"id": "H2CkERKKqTF3mBZHg9kHFQ", "alias": "ejji-baltimore-2", "name": "EJJI", "image_url": "https://s3-media2.fl.yelpcdn.com/bphoto/ETVxev23Uki_V3uJR2jTYg/o.jpg", "is_closed": false, "url": "https://www.yelp.com/biz/ejji-baltimore-2?adjust_creative=bdjMmkM5eh5bUOeX_Vuivw&utm_campaign=yelp_api_v3&utm_medium=api_v3_business_search&utm_source=bdjMmkM5eh5bUOeX_Vuivw", "review_count": 60, "categories": [{"alias": "ramen", "title": "Ramen"}], "rating": 4.7, "coordinates": {"latitude": 39.282525, "longitude": -76.5987055}, "transactions": ["pickup", "delivery"], "location": {"address1": "711 S Central Ave", "address2": "Fl 2", "address3": "", "city": "Baltimore", "zip_code": "21202", "country": "US", "state": "MD", "display_address": ["711 S Central Ave", "Fl 2", "Baltimore, MD 21202"]}, "phone": "+14434383610", "display_phone": "(443) 438-3610", "distance": 3105.7346597500014}, {"id": "sGj6gCAj0McGYhBUyNrlYA", "alias": "mi-and-yu-noodle-bar-baltimore-3", "name": "Mi & Yu Noodle Bar", "image_url": "https://s3-media2.fl.yelpcdn.com/bphoto/Zr52bnTKPZ2yEnmNBNpaeQ/o.jpg", "is_closed": false, "url": "https://www.yelp.com/biz/mi-and-yu-noodle-bar-baltimore-3?adjust_creative=bdjMmkM5eh5bUOeX_Vuivw&utm_campaign=yelp_api_v3&utm_medium=api_v3_business_search&utm_source=bdjMmkM5eh5bUOeX_Vuivw", "review_count": 155, "categories": [{"alias": "asianfusion", "title": "Asian Fusion"}, {"alias": "noodles", "title": "Noodles"}, {"alias": "ramen", "title": "Ramen"}], "rating": 3.7, "coordinates": {"latitude": 39.335901064749, "longitude": -76.6300839185715}, "transactions": ["pickup", "delivery"], "price": "$$", "location": {"address1": "711 W 40th St", "address2": "Ste 154", "address3": null, "city": "Baltimore", "zip_code": "21211", "country": "US", "state": "MD", "display_address": ["711 W 40th St", "Ste 154", "Baltimore, MD 21211"]}, "phone": "+14436027601", "display_phone": "(443) 602-7601", "distance": 3469.182109574088}, {"id": "5qWaWZ1_5f_O6VhIrcYi6Q", "alias": "ejji-ramen-baltimore", "name": "Ejji Ramen", "image_url": "https://s3-media2.fl.yelpcdn.com/bphoto/efilIZuJldDCW0lt0eNP5Q/o.jpg", "is_closed": false, "url": "https://www.yelp.com/biz/ejji-ramen-baltimore?adjust_creative=bdjMmkM5eh5bUOeX_Vuivw&utm_campaign=yelp_api_v3&utm_medium=api_v3_business_search&utm_source=bdjMmkM5eh5bUOeX_Vuivw", "review_count": 328, "categories": [{"alias": "ramen", "title": "Ramen"}], "rating": 3.7, "coordinates": {"latitude": 39.3639525452055, "longitude": -76.6083380675535}, "transactions": ["pickup", "delivery"], "price": "$$", "location": {"address1": "529 E Belvedere Ave", "address2": "", "address3": "", "city": "Baltimore", "zip_code": "21212", "country": "US", "state": "MD", "display_address": ["529 E Belvedere Ave", "Baltimore, MD 21212"]}, "phone": "+14104358688", "display_phone": "(410) 435-8688", "distance": 6078.912252418003}, {"id": "n3rjhuloJIwqul_g6F09Lg", "alias": "slurpin-ramen-baltimore", "name": "Slurpin Ramen", "image_url": "https://s3-media1.fl.yelpcdn.com/bphoto/xThB9aTOjzghv7MnLBXKUw/o.jpg", "is_closed": false, "url": "https://www.yelp.com/biz/slurpin-ramen-baltimore?adjust_creative=bdjMmkM5eh5bUOeX_Vuivw&utm_campaign=yelp_api_v3&utm_medium=api_v3_business_search&utm_source=bdjMmkM5eh5bUOeX_Vuivw", "review_count": 18, "categories": [{"alias": "ramen", "title": "Ramen"}], "rating": 4.3, "coordinates": {"latitude": 39.29584, "longitude": -76.61904}, "transactions": [], "price": "$$", "location": {"address1": "520 Park Ave", "address2": "", "address3": null, "city": "Baltimore", "zip_code": "21201", "country": "US", "state": "MD", "display_address": ["520 Park Ave", "Baltimore, MD 21201"]}, "phone": "+13016558959", "display_phone": "(301) 655-8959", "distance": 1696.3046454897951}, {"id": "C_-RyfQklGrpm2ghBQWoRg", "alias": "akira-ramen-and-izakaya-nottingham", "name": "Akira Ramen & Izakaya", "image_url": "https://s3-media4.fl.yelpcdn.com/bphoto/mlCIBAreqNIvNIO7FrKFJQ/o.jpg", "is_closed": false, "url": "https://www.yelp.com/biz/akira-ramen-and-izakaya-nottingham?adjust_creative=bdjMmkM5eh5bUOeX_Vuivw&utm_campaign=yelp_api_v3&utm_medium=api_v3_business_search&utm_source=bdjMmkM5eh5bUOeX_Vuivw", "review_count": 127, "categories": [{"alias": "ramen", "title": "Ramen"}, {"alias": "izakaya", "title": "Izakaya"}], "rating": 3.9, "coordinates": {"latitude": 39.37118567, "longitude": -76.46497367}, "transactions": ["delivery", "pickup"], "price": "$$", "location": {"address1": "8133-A Honeygo Blvd", "address2": null, "address3": "", "city": "Nottingham", "zip_code": "21236", "country": "US", "state": "MD", "display_address": ["8133-A Honeygo Blvd", "Nottingham, MD 21236"]}, "phone": "+14108703243", "display_phone": "(410) 870-3243", "distance": 14158.331067150417}, {"id": "Xayjp8lOBLcnOKk6AUZrxA", "alias": "doobys-baltimore", "name": "Dooby's", "image_url": "https://s3-media3.fl.yelpcdn.com/bphoto/Zx1Qx-FyWbRK3GYNadcxag/o.jpg", "is_closed": false, "url": "https://www.yelp.com/biz/doobys-baltimore?adjust_creative=bdjMmkM5eh5bUOeX_Vuivw&utm_campaign=yelp_api_v3&utm_medium=api_v3_business_search&utm_source=bdjMmkM5eh5bUOeX_Vuivw", "review_count": 703, "categories": [{"alias": "coffee", "title": "Coffee & Tea"}, {"alias": "asianfusion", "title": "Asian Fusion"}, {"alias": "breakfast_brunch", "title": "Breakfast & Brunch"}], "rating": 4.0, "coordinates": {"latitude": 39.29882300693483, "longitude": -76.6158836451553}, "transactions": ["pickup", "delivery"], "price": "$$", "location": {"address1": "802 N Charles St", "address2": null, "address3": "", "city": "Baltimore", "zip_code": "21201", "country": "US", "state": "MD", "display_address": ["802 N Charles St", "Baltimore, MD 21201"]}, "phone": "+14106093162", "display_phone": "(410) 609-3162", "distance": 1304.004302488409}, {"id": "apzOjOV8mdmm_nOpslpOXg", "alias": "katana-baltimore", "name": "Katana", "image_url": "https://s3-media1.fl.yelpcdn.com/bphoto/gEijrPdvHuXP1TGhzaawVg/o.jpg", "is_closed": false, "url": "https://www.yelp.com/biz/katana-baltimore?adjust_creative=bdjMmkM5eh5bUOeX_Vuivw&utm_campaign=yelp_api_v3&utm_medium=api_v3_business_search&utm_source=bdjMmkM5eh5bUOeX_Vuivw", "review_count": 167, "categories": [{"alias": "sushi", "title": "Sushi Bars"}, {"alias": "ramen", "title": "Ramen"}, {"alias": "asianfusion", "title": "Asian Fusion"}], "rating": 3.6, "coordinates": {"latitude": 39.282093, "longitude": -76.582366}, "transactions": ["pickup", "delivery"], "price": "$$", "location": {"address1": "845 S Montford Ave", "address2": "", "address3": "", "city": "Baltimore", "zip_code": "21224", "country": "US", "state": "MD", "display_address": ["845 S Montford Ave", "Baltimore, MD 21224"]}, "phone": "+14105227100", "display_phone": "(410) 522-7100", "distance": 3791.0557368174495}, {"id": "Erzc9mS35xdDtoYNv3Gkmw", "alias": "azumi-baltimore", "name": "Azumi", "image_url": "https://s3-media2.fl.yelpcdn.com/bphoto/csu5946iFqy_wpYZj1kfLA/o.jpg", "is_closed": false, "url": "https://www.yelp.com/biz/azumi-baltimore?adjust_creative=bdjMmkM5eh5bUOeX_Vuivw&utm_campaign=yelp_api_v3&utm_medium=api_v3_business_search&utm_source=bdjMmkM5eh5bUOeX_Vuivw", "review_count": 651, "categories": [{"alias": "sushi", "title": "Sushi Bars"}, {"alias": "teppanyaki", "title": "Teppanyaki"}], "rating": 3.9, "coordinates": {"latitude": 39.282787197393, "longitude": -76.6028602654079}, "transactions": ["delivery"], "price": "$$$", "location": {"address1": "725 Aliceanna St", "address2": null, "address3": "", "city": "Baltimore", "zip_code": "21202", "country": "US", "state": "MD", "display_address": ["725 Aliceanna St", "Baltimore, MD 21202"]}, "phone": "+14432200477", "display_phone": "(443) 220-0477", "distance": 2994.142886177001}, {"id": "eJ8FPknmm6KFl9GV34qOmw", "alias": "akira-ramen-and-sushi-owings-mills", "name": "Akira Ramen & Sushi", "image_url": "https://s3-media3.fl.yelpcdn.com/bphoto/SkGrGJfty3FtDWUedy11bA/o.jpg", "is_closed": false, "url": "https://www.yelp.com/biz/akira-ramen-and-sushi-owings-mills?adjust_creative=bdjMmkM5eh5bUOeX_Vuivw&utm_campaign=yelp_api_v3&utm_medium=api_v3_business_search&utm_source=bdjMmkM5eh5bUOeX_Vuivw", "review_count": 15, "categories": [{"alias": "sushi", "title": "Sushi Bars"}, {"alias": "ramen", "title": "Ramen"}], "rating": 4.2, "coordinates": {"latitude": 39.40598488813818, "longitude": -76.79214730135682}, "transactions": ["pickup", "delivery"], "location": {"address1": "10200 Mill Run Cir", "address2": "Ste 104", "address3": null, "city": "Owings Mills", "zip_code": "21117", "country": "US", "state": "MD", "display_address": ["10200 Mill Run Cir", "Ste 104", "Owings Mills, MD 21117"]}, "phone": "+14102057465", "display_phone": "(410) 205-7465", "distance": 19064.443999216663}, {"id": "x_LG8IhwHdmHae2jKm3biQ", "alias": "matsuri-japanese-restaurant-baltimore-2", "name": "Matsuri Japanese Restaurant", "image_url": "https://s3-media1.fl.yelpcdn.com/bphoto/QZ2itNMXQroTWe5N6pukcQ/o.jpg", "is_closed": false, "url": "https://www.yelp.com/biz/matsuri-japanese-restaurant-baltimore-2?adjust_creative=bdjMmkM5eh5bUOeX_Vuivw&utm_campaign=yelp_api_v3&utm_medium=api_v3_business_search&utm_source=bdjMmkM5eh5bUOeX_Vuivw", "review_count": 240, "categories": [{"alias": "japanese", "title": "Japanese"}, {"alias": "sushi", "title": "Sushi Bars"}], "rating": 3.9, "coordinates": {"latitude": 39.2765, "longitude": -76.61413}, "transactions": ["delivery", "restaurant_reservation", "pickup"], "price": "$$", "location": {"address1": "1105 S Charles St", "address2": "", "address3": "", "city": "Baltimore", "zip_code": "21230", "country": "US", "state": "MD", "display_address": ["1105 S Charles St", "Baltimore, MD 21230"]}, "phone": "+14107528561", "display_phone": "(410) 752-8561", "distance": 3670.445015564745}, {"id": "4UwYJKKDyC9JlbkIP_F-oA", "alias": "chopin-noodle-house-catonsville", "name": "Chopin Noodle House", "image_url": "https://s3-media1.fl.yelpcdn.com/bphoto/Zpb4UDjkLVH-EB3THqfM-A/o.jpg", "is_closed": false, "url": "https://www.yelp.com/biz/chopin-noodle-house-catonsville?adjust_creative=bdjMmkM5eh5bUOeX_Vuivw&utm_campaign=yelp_api_v3&utm_medium=api_v3_business_search&utm_source=bdjMmkM5eh5bUOeX_Vuivw", "review_count": 19, "categories": [{"alias": "chinese", "title": "Chinese"}, {"alias": "noodles", "title": "Noodles"}], "rating": 4.0, "coordinates": {"latitude": 39.29112700539885, "longitude": -76.72250919999999}, "transactions": ["pickup", "delivery"], "location": {"address1": "5514 Baltimore National Pike", "address2": "", "address3": null, "city": "Catonsville", "zip_code": "21228", "country": "US", "state": "MD", "display_address": ["5514 Baltimore National Pike", "Catonsville, MD 21228"]}, "phone": "+14436365573", "display_phone": "(443) 636-5573", "distance": 9970.323087640561}, {"id": "jpZ74JUb3qdFUT_WnEqgow", "alias": "akira-ramen-towson-towson", "name": "Akira Ramen Towson", "image_url": "https://s3-media2.fl.yelpcdn.com/bphoto/NDWvBA6tCum3DZRZijlPgA/o.jpg", "is_closed": false, "url": "https://www.yelp.com/biz/akira-ramen-towson-towson?adjust_creative=bdjMmkM5eh5bUOeX_Vuivw&utm_campaign=yelp_api_v3&utm_medium=api_v3_business_search&utm_source=bdjMmkM5eh5bUOeX_Vuivw", "review_count": 9, "categories": [{"alias": "sushi", "title": "Sushi Bars"}, {"alias": "ramen", "title": "Ramen"}, {"alias": "desserts", "title": "Desserts"}], "rating": 3.9, "coordinates": {"latitude": 39.401552, "longitude": -76.601586}, "transactions": ["pickup", "delivery"], "location": {"address1": "1 E Joppa Rd", "address2": "Ste 165A", "address3": "", "city": "Towson", "zip_code": "21286", "country": "US", "state": "MD", "display_address": ["1 E Joppa Rd", "Ste 165A", "Towson, MD 21286"]}, "phone": "+14432752389", "display_phone": "(443) 275-2389", "distance": 10279.580094507779}, {"id": "nzQw7cSUCBs3Y486R8wMKA", "alias": "nanami-cafe-baltimore-4", "name": "Nanami Cafe", "image_url": "https://s3-media2.fl.yelpcdn.com/bphoto/Cug9dk0gZqd_HEUQWcmrtA/o.jpg", "is_closed": false, "url": "https://www.yelp.com/biz/nanami-cafe-baltimore-4?adjust_creative=bdjMmkM5eh5bUOeX_Vuivw&utm_campaign=yelp_api_v3&utm_medium=api_v3_business_search&utm_source=bdjMmkM5eh5bUOeX_Vuivw", "review_count": 305, "categories": [{"alias": "sushi", "title": "Sushi Bars"}, {"alias": "japanese", "title": "Japanese"}], "rating": 4.0, "coordinates": {"latitude": 39.281297, "longitude": -76.590942}, "transactions": ["pickup", "delivery"], "price": "$$", "location": {"address1": "907 S Ann St", "address2": "", "address3": "", "city": "Baltimore", "zip_code": "21231", "country": "US", "state": "MD", "display_address": ["907 S Ann St", "Baltimore, MD 21231"]}, "phone": "+14103279400", "display_phone": "(410) 327-9400", "distance": 3480.1411479971184}, {"id": "X3ACqY8NXyLkStd8_rMvQA", "alias": "poke-n-ramen-360-hanover", "name": "Poke N Ramen 360", "image_url": "https://s3-media4.fl.yelpcdn.com/bphoto/Wt5INw019jv3dTSToH5nqA/o.jpg", "is_closed": false, "url": "https://www.yelp.com/biz/poke-n-ramen-360-hanover?adjust_creative=bdjMmkM5eh5bUOeX_Vuivw&utm_campaign=yelp_api_v3&utm_medium=api_v3_business_search&utm_source=bdjMmkM5eh5bUOeX_Vuivw", "review_count": 24, "categories": [{"alias": "fooddeliveryservices", "title": "Food Delivery Services"}], "rating": 4.1, "coordinates": {"latitude": 39.15744826719788, "longitude": -76.72527058175352}, "transactions": ["pickup", "delivery"], "location": {"address1": "7000 Arundel Mills Cir", "address2": "Ste K107A", "address3": null, "city": "Hanover", "zip_code": "21076", "country": "US", "state": "MD", "display_address": ["7000 Arundel Mills Cir", "Ste K107A", "Hanover, MD 21076"]}, "phone": "+14432729161", "display_phone": "(443) 272-9161", "distance": 19628.36877900563}, {"id": "bVqomOVnzsAr0XXOqveGEw", "alias": "po-tung-trading-baltimore-2", "name": "Po Tung Trading", "image_url": "https://s3-media4.fl.yelpcdn.com/bphoto/elcjLFOalUnii-FPNydrgA/o.jpg", "is_closed": false, "url": "https://www.yelp.com/biz/po-tung-trading-baltimore-2?adjust_creative=bdjMmkM5eh5bUOeX_Vuivw&utm_campaign=yelp_api_v3&utm_medium=api_v3_business_search&utm_source=bdjMmkM5eh5bUOeX_Vuivw", "review_count": 63, "categories": [{"alias": "intlgrocery", "title": "International Grocery"}], "rating": 4.5, "coordinates": {"latitude": 39.2936782836914, "longitude": -76.6179275512695}, "transactions": [], "price": "$", "location": {"address1": "321 Park Ave", "address2": "", "address3": "", "city": "Baltimore", "zip_code": "21201", "country": "US", "state": "MD", "display_address": ["321 Park Ave", "Baltimore, MD 21201"]}, "phone": "+14109621510", "display_phone": "(410) 962-1510", "distance": 1894.5943053146764}, {"id": "IHOmoBVhY4QimpuPyVaYNw", "alias": "bodhi-federal-hill-baltimore-2", "name": "Bodhi Federal Hill", "image_url": "https://s3-media2.fl.yelpcdn.com/bphoto/r3Zghm7cDtEsfIhNTYPDag/o.jpg", "is_closed": false, "url": "https://www.yelp.com/biz/bodhi-federal-hill-baltimore-2?adjust_creative=bdjMmkM5eh5bUOeX_Vuivw&utm_campaign=yelp_api_v3&utm_medium=api_v3_business_search&utm_source=bdjMmkM5eh5bUOeX_Vuivw", "review_count": 226, "categories": [{"alias": "thai", "title": "Thai"}], "rating": 4.4, "coordinates": {"latitude": 39.27299, "longitude": -76.61207}, "transactions": ["pickup", "delivery"], "price": "$$", "location": {"address1": "1444 Light St", "address2": "", "address3": null, "city": "Baltimore", "zip_code": "21230", "country": "US", "state": "MD", "display_address": ["1444 Light St", "Baltimore, MD 21230"]}, "phone": "+14437087527", "display_phone": "(443) 708-7527", "distance": 4040.3471545805633}, {"id": "1i7J-ChCAtY-71H9fDDKgg", "alias": "ja-kum-sung-glen-burnie", "name": "Ja Kum Sung", "image_url": "https://s3-media1.fl.yelpcdn.com/bphoto/PsWvje8076KUs148mqlY7Q/o.jpg", "is_closed": false, "url": "https://www.yelp.com/biz/ja-kum-sung-glen-burnie?adjust_creative=bdjMmkM5eh5bUOeX_Vuivw&utm_campaign=yelp_api_v3&utm_medium=api_v3_business_search&utm_source=bdjMmkM5eh5bUOeX_Vuivw", "review_count": 319, "categories": [{"alias": "korean", "title": "Korean"}, {"alias": "chinese", "title": "Chinese"}], "rating": 4.2, "coordinates": {"latitude": 39.1605684234704, "longitude": -76.6204474121332}, "transactions": ["pickup"], "price": "$$", "location": {"address1": "7523 Ritchie Hwy", "address2": "", "address3": "", "city": "Glen Burnie", "zip_code": "21061", "country": "US", "state": "MD", "display_address": ["7523 Ritchie Hwy", "Glen Burnie, MD 21061"]}, "phone": "+14107665208", "display_phone": "(410) 766-5208", "distance": 16565.80812914766}, {"id": "aymXOEor5iwV4K8FDWIuYg", "alias": "aji-sushi-owings-mills-2", "name": "Aji Sushi", "image_url": "https://s3-media1.fl.yelpcdn.com/bphoto/ed0-eUrUXXsJH9UrnpZDlg/o.jpg", "is_closed": false, "url": "https://www.yelp.com/biz/aji-sushi-owings-mills-2?adjust_creative=bdjMmkM5eh5bUOeX_Vuivw&utm_campaign=yelp_api_v3&utm_medium=api_v3_business_search&utm_source=bdjMmkM5eh5bUOeX_Vuivw", "review_count": 18, "categories": [{"alias": "sushi", "title": "Sushi Bars"}, {"alias": "teppanyaki", "title": "Teppanyaki"}], "rating": 4.3, "coordinates": {"latitude": 39.4185567, "longitude": -76.77678674053335}, "transactions": ["pickup", "delivery"], "location": {"address1": "10347 Reisterstown Rd", "address2": null, "address3": "", "city": "Owings Mills", "zip_code": "21117", "country": "US", "state": "MD", "display_address": ["10347 Reisterstown Rd", "Owings Mills, MD 21117"]}, "phone": "+14103637720", "display_phone": "(410) 363-7720", "distance": 18857.20965693668}, {"id": "ZFFQuoUajWY_gYZ4HjfIKQ", "alias": "water-song-yunnan-kitchen-baltimore-3", "name": "Water Song Yunnan Kitchen", "image_url": "https://s3-media1.fl.yelpcdn.com/bphoto/Jc0HjhoAlPHcJuAU9NlLLw/o.jpg", "is_closed": false, "url": "https://www.yelp.com/biz/water-song-yunnan-kitchen-baltimore-3?adjust_creative=bdjMmkM5eh5bUOeX_Vuivw&utm_campaign=yelp_api_v3&utm_medium=api_v3_business_search&utm_source=bdjMmkM5eh5bUOeX_Vuivw", "review_count": 152, "categories": [{"alias": "chinese", "title": "Chinese"}, {"alias": "noodles", "title": "Noodles"}], "rating": 4.2, "coordinates": {"latitude": 39.276528, "longitude": -76.613502}, "transactions": ["pickup", "delivery"], "price": "$$", "location": {"address1": "21 E Cross St", "address2": "", "address3": null, "city": "Baltimore", "zip_code": "21230", "country": "US", "state": "MD", "display_address": ["21 E Cross St", "Baltimore, MD 21230"]}, "phone": "+14438694580", "display_phone": "(443) 869-4580", "distance": 3664.8172088988968}, {"id": "lYB4LshD2s05-gepYdG-lg", "alias": "indoviet-baltimore", "name": "IndoViet", "image_url": "https://s3-media2.fl.yelpcdn.com/bphoto/8JTNWETjmExZOu-H56J9yA/o.jpg", "is_closed": false, "url": "https://www.yelp.com/biz/indoviet-baltimore?adjust_creative=bdjMmkM5eh5bUOeX_Vuivw&utm_campaign=yelp_api_v3&utm_medium=api_v3_business_search&utm_source=bdjMmkM5eh5bUOeX_Vuivw", "review_count": 59, "categories": [{"alias": "vietnamese", "title": "Vietnamese"}, {"alias": "indonesian", "title": "Indonesian"}], "rating": 3.9, "coordinates": {"latitude": 39.286364176045254, "longitude": -76.5692248}, "transactions": ["pickup", "delivery"], "location": {"address1": "3323 Eastern Ave", "address2": "", "address3": null, "city": "Baltimore", "zip_code": "21224", "country": "US", "state": "MD", "display_address": ["3323 Eastern Ave", "Baltimore, MD 21224"]}, "phone": "+14436827051", "display_phone": "(443) 682-7051", "distance": 4270.138820146612}, {"id": "v2qiFqN0SRAFd18WGggd5Q", "alias": "seoul-fusion-korean-and-poke-bar-cockeysville", "name": "Seoul Fusion Korean And Poke Bar", "image_url": "https://s3-media3.fl.yelpcdn.com/bphoto/1Kegmr_r21wW0ElMWpH_nw/o.jpg", "is_closed": false, "url": "https://www.yelp.com/biz/seoul-fusion-korean-and-poke-bar-cockeysville?adjust_creative=bdjMmkM5eh5bUOeX_Vuivw&utm_campaign=yelp_api_v3&utm_medium=api_v3_business_search&utm_source=bdjMmkM5eh5bUOeX_Vuivw", "review_count": 8, "categories": [{"alias": "korean", "title": "Korean"}, {"alias": "poke", "title": "Poke"}], "rating": 4.6, "coordinates": {"latitude": 39.46523375612415, "longitude": -76.63737913806433}, "transactions": ["pickup", "delivery"], "location": {"address1": "10128 York Rd", "address2": "Ste A", "address3": null, "city": "Cockeysville", "zip_code": "21030", "country": "US", "state": "MD", "display_address": ["10128 York Rd", "Ste A", "Cockeysville, MD 21030"]}, "phone": "+14433305991", "display_phone": "(443) 330-5991", "distance": 17510.758255028668}, {"id": "CoQ7dSwRNtdU-zdWebS3WA", "alias": "mickys-soju-house-ellicott-city", "name": "Micky's Soju House", "image_url": "https://s3-media1.fl.yelpcdn.com/bphoto/iV2v_rzIZgTrC4tqM323mA/o.jpg", "is_closed": false, "url": "https://www.yelp.com/biz/mickys-soju-house-ellicott-city?adjust_creative=bdjMmkM5eh5bUOeX_Vuivw&utm_campaign=yelp_api_v3&utm_medium=api_v3_business_search&utm_source=bdjMmkM5eh5bUOeX_Vuivw", "review_count": 5, "categories": [{"alias": "pubs", "title": "Pubs"}, {"alias": "korean", "title": "Korean"}, {"alias": "karaoke", "title": "Karaoke"}], "rating": 5.0, "coordinates": {"latitude": 39.28669, "longitude": -76.806722}, "transactions": ["delivery", "pickup"], "location": {"address1": "8450 Baltimore National Pike", "address2": "Ste 125", "address3": "", "city": "Ellicott City", "zip_code": "21043", "country": "US", "state": "MD", "display_address": ["8450 Baltimore National Pike", "Ste 125", "Ellicott City, MD 21043"]}, "phone": "+14104493932", "display_phone": "(410) 449-3932", "distance": 17196.868359566382}, {"id": "ajnib-5m4eNZAcfnoCS59w", "alias": "the-hub-asian-food-hall-catonsville-2", "name": "The Hub Asian Food Hall", "image_url": "https://s3-media2.fl.yelpcdn.com/bphoto/prp8sW7ggbpWBpQaS8n3ug/o.jpg", "is_closed": false, "url": "https://www.yelp.com/biz/the-hub-asian-food-hall-catonsville-2?adjust_creative=bdjMmkM5eh5bUOeX_Vuivw&utm_campaign=yelp_api_v3&utm_medium=api_v3_business_search&utm_source=bdjMmkM5eh5bUOeX_Vuivw", "review_count": 208, "categories": [{"alias": "food_court", "title": "Food Court"}], "rating": 4.2, "coordinates": {"latitude": 39.28703, "longitude": -76.761989}, "transactions": ["pickup", "delivery"], "price": "$$", "location": {"address1": "6510 Baltimore National Pike", "address2": "Ste 5.1", "address3": null, "city": "Catonsville", "zip_code": "21228", "country": "US", "state": "MD", "display_address": ["6510 Baltimore National Pike", "Ste 5.1", "Catonsville, MD 21228"]}, "phone": "+16678025177", "display_phone": "(667) 802-5177", "distance": 13391.859836651864}, {"id": "EoLu4ItBJnzYmXPszO40ww", "alias": "domoishi-reisterstown-reisterstown", "name": "Domoishi -  Reisterstown", "image_url": "https://s3-media1.fl.yelpcdn.com/bphoto/D-eslLhPr07w7kwhgBLbWg/o.jpg", "is_closed": false, "url": "https://www.yelp.com/biz/domoishi-reisterstown-reisterstown?adjust_creative=bdjMmkM5eh5bUOeX_Vuivw&utm_campaign=yelp_api_v3&utm_medium=api_v3_business_search&utm_source=bdjMmkM5eh5bUOeX_Vuivw", "review_count": 10, "categories": [{"alias": "juicebars", "title": "Juice Bars & Smoothies"}, {"alias": "chicken_wings", "title": "Chicken Wings"}, {"alias": "ramen", "title": "Ramen"}], "rating": 4.3, "coordinates": {"latitude": 39.441226, "longitude": -76.808843}, "transactions": ["pickup", "delivery"], "location": {"address1": "11618 Reisterstown Rd", "address2": null, "address3": "", "city": "Reisterstown", "zip_code": "21136", "country": "US", "state": "MD", "display_address": ["11618 Reisterstown Rd", "Reisterstown, MD 21136"]}, "phone": "+14105269888", "display_phone": "(410) 526-9888", "distance": 22587.275468119755}, {"id": "9UwxKW6LJCtLMkl9F4G6xQ", "alias": "jong-kak-baltimore-3", "name": "Jong Kak", "image_url": "https://s3-media2.fl.yelpcdn.com/bphoto/sjZWdpbg7OcUEofKz_ze8w/o.jpg", "is_closed": false, "url": "https://www.yelp.com/biz/jong-kak-baltimore-3?adjust_creative=bdjMmkM5eh5bUOeX_Vuivw&utm_campaign=yelp_api_v3&utm_medium=api_v3_business_search&utm_source=bdjMmkM5eh5bUOeX_Vuivw", "review_count": 380, "categories": [{"alias": "korean", "title": "Korean"}, {"alias": "bbq", "title": "Barbeque"}], "rating": 3.8, "coordinates": {"latitude": 39.3123046, "longitude": -76.6174721}, "transactions": ["pickup", "delivery"], "price": "$$", "location": {"address1": "18 W 20th St", "address2": null, "address3": "", "city": "Baltimore", "zip_code": "21218", "country": "US", "state": "MD", "display_address": ["18 W 20th St", "Baltimore, MD 21218"]}, "phone": "+14108375231", "display_phone": "(410) 837-5231", "distance": 801.0604079916147}, {"id": "c5UPpq2ifaH41UgE8dqp1w", "alias": "blowfish-poke-and-grill-baltimore-2", "name": "Blowfish Poke & Grill", "image_url": "https://s3-media1.fl.yelpcdn.com/bphoto/itBB8oZU35qkJ6osx0RC0Q/o.jpg", "is_closed": false, "url": "https://www.yelp.com/biz/blowfish-poke-and-grill-baltimore-2?adjust_creative=bdjMmkM5eh5bUOeX_Vuivw&utm_campaign=yelp_api_v3&utm_medium=api_v3_business_search&utm_source=bdjMmkM5eh5bUOeX_Vuivw", "review_count": 28, "categories": [{"alias": "hawaiian", "title": "Hawaiian"}, {"alias": "poke", "title": "Poke"}], "rating": 4.1, "coordinates": {"latitude": 39.2768183, "longitude": -76.6132459}, "transactions": ["pickup", "delivery"], "location": {"address1": "1065 S Charles St", "address2": null, "address3": null, "city": "Baltimore", "zip_code": "21230", "country": "US", "state": "MD", "display_address": ["1065 S Charles St", "Baltimore, MD 21230"]}, "phone": "+14108140169", "display_phone": "(410) 814-0169", "distance": 3628.3656656572048}, {"id": "-s_-JZLfrkvXTMglGYb1hw", "alias": "pho-saigon-catonsville-3", "name": "Pho Saigon", "image_url": "https://s3-media4.fl.yelpcdn.com/bphoto/kQI533wt_1nePvuaEOLXuA/o.jpg", "is_closed": false, "url": "https://www.yelp.com/biz/pho-saigon-catonsville-3?adjust_creative=bdjMmkM5eh5bUOeX_Vuivw&utm_campaign=yelp_api_v3&utm_medium=api_v3_business_search&utm_source=bdjMmkM5eh5bUOeX_Vuivw", "review_count": 682, "categories": [{"alias": "vietnamese", "title": "Vietnamese"}], "rating": 4.2, "coordinates": {"latitude": 39.285951, "longitude": -76.753921}, "transactions": [], "price": "$$", "location": {"address1": "1116 N Rolling Rd", "address2": null, "address3": "", "city": "Catonsville", "zip_code": "21228", "country": "US", "state": "MD", "display_address": ["1116 N Rolling Rd", "Catonsville, MD 21228"]}, "phone": "+14107442740", "display_phone": "(410) 744-2740", "distance": 12734.217895985596}, {"id": "O2ZrDUuqXoluq9cmrFhoyg", "alias": "mount-vernon-marketplace-baltimore-2", "name": "Mount Vernon Marketplace", "image_url": "https://s3-media4.fl.yelpcdn.com/bphoto/8DoiN7JVjJqvCExbNxQ8fQ/o.jpg", "is_closed": false, "url": "https://www.yelp.com/biz/mount-vernon-marketplace-baltimore-2?adjust_creative=bdjMmkM5eh5bUOeX_Vuivw&utm_campaign=yelp_api_v3&utm_medium=api_v3_business_search&utm_source=bdjMmkM5eh5bUOeX_Vuivw", "review_count": 262, "categories": [{"alias": "food_court", "title": "Food Court"}], "rating": 4.4, "coordinates": {"latitude": 39.295902, "longitude": -76.618819}, "transactions": ["pickup", "delivery"], "price": "$$", "location": {"address1": "520 Park Ave", "address2": "", "address3": "", "city": "Baltimore", "zip_code": "21201", "country": "US", "state": "MD", "display_address": ["520 Park Ave", "Baltimore, MD 21201"]}, "phone": "+14437967393", "display_phone": "(443) 796-7393", "distance": 1709.6759701723727}, {"id": "WpaYCTJyPAFVHdB5J-c61w", "alias": "edo-sushi-lutherville-timonium", "name": "Edo Sushi", "image_url": "https://s3-media1.fl.yelpcdn.com/bphoto/O6KFcQhqb5Pi-WQl2Ygluw/o.jpg", "is_closed": false, "url": "https://www.yelp.com/biz/edo-sushi-lutherville-timonium?adjust_creative=bdjMmkM5eh5bUOeX_Vuivw&utm_campaign=yelp_api_v3&utm_medium=api_v3_business_search&utm_source=bdjMmkM5eh5bUOeX_Vuivw", "review_count": 116, "categories": [{"alias": "japanese", "title": "Japanese"}, {"alias": "sushi", "title": "Sushi Bars"}], "rating": 4.3, "coordinates": {"latitude": 39.4559445669107, "longitude": -76.6297352313995}, "transactions": ["pickup", "delivery"], "price": "$$", "location": {"address1": "53 E Padonia Rd", "address2": "", "address3": "", "city": "Lutherville Timonium", "zip_code": "21093", "country": "US", "state": "MD", "display_address": ["53 E Padonia Rd", "Lutherville Timonium, MD 21093"]}, "phone": "+14106679200", "display_phone": "(410) 667-9200", "distance": 16404.365702950425}, {"id": "UbIRSKjLeaimgdMeUNa7Tg", "alias": "ra-sushi-bar-restaurant-baltimore", "name": "RA Sushi Bar Restaurant", "image_url": "https://s3-media3.fl.yelpcdn.com/bphoto/6kslKgYo0QD7Q47KZ3-a6w/o.jpg", "is_closed": false, "url": "https://www.yelp.com/biz/ra-sushi-bar-restaurant-baltimore?adjust_creative=bdjMmkM5eh5bUOeX_Vuivw&utm_campaign=yelp_api_v3&utm_medium=api_v3_business_search&utm_source=bdjMmkM5eh5bUOeX_Vuivw", "review_count": 946, "categories": [{"alias": "sushi", "title": "Sushi Bars"}, {"alias": "japanese", "title": "Japanese"}, {"alias": "cocktailbars", "title": "Cocktail Bars"}], "rating": 3.5, "coordinates": {"latitude": 39.28258552349645, "longitude": -76.59748421504587}, "transactions": ["pickup", "delivery"], "price": "$$", "location": {"address1": "1390 Lancaster St", "address2": "", "address3": "", "city": "Baltimore", "zip_code": "21231", "country": "US", "state": "MD", "display_address": ["1390 Lancaster St", "Baltimore, MD 21231"]}, "phone": "+14105223200", "display_phone": "(410) 522-3200", "distance": 3131.059459042857}, {"id": "UEH_4viPkE_69dihECKE6g", "alias": "the-crown-baltimore-2", "name": "The Crown", "image_url": "https://s3-media2.fl.yelpcdn.com/bphoto/EYYRZByqGjkmgXyDCigdBQ/o.jpg", "is_closed": false, "url": "https://www.yelp.com/biz/the-crown-baltimore-2?adjust_creative=bdjMmkM5eh5bUOeX_Vuivw&utm_campaign=yelp_api_v3&utm_medium=api_v3_business_search&utm_source=bdjMmkM5eh5bUOeX_Vuivw", "review_count": 46, "categories": [{"alias": "korean", "title": "Korean"}, {"alias": "divebars", "title": "Dive Bars"}, {"alias": "asianfusion", "title": "Asian Fusion"}], "rating": 3.9, "coordinates": {"latitude": 39.311785, "longitude": -76.616874}, "transactions": ["pickup", "delivery"], "price": "$", "location": {"address1": "1910 N Charles St", "address2": "", "address3": "", "city": "Baltimore", "zip_code": "21218", "country": "US", "state": "MD", "display_address": ["1910 N Charles St", "Baltimore, MD 21218"]}, "phone": "+14106254848", "display_phone": "(410) 625-4848", "distance": 729.0722915025832}, {"id": "QLr9ZfuU6hNyM1adspWO1A", "alias": "hao-chi-baltimore-2", "name": "Hao chi", "image_url": "https://s3-media2.fl.yelpcdn.com/bphoto/fKcbj3egnKPYDEBdWNw0Uw/o.jpg", "is_closed": false, "url": "https://www.yelp.com/biz/hao-chi-baltimore-2?adjust_creative=bdjMmkM5eh5bUOeX_Vuivw&utm_campaign=yelp_api_v3&utm_medium=api_v3_business_search&utm_source=bdjMmkM5eh5bUOeX_Vuivw", "review_count": 38, "categories": [{"alias": "chinese", "title": "Chinese"}, {"alias": "asianfusion", "title": "Asian Fusion"}, {"alias": "seafood", "title": "Seafood"}], "rating": 3.9, "coordinates": {"latitude": 39.2838207, "longitude": -76.5929894}, "transactions": ["pickup", "delivery"], "location": {"address1": "629 S Broadway", "address2": "", "address3": null, "city": "Baltimore", "zip_code": "21231", "country": "US", "state": "MD", "display_address": ["629 S Broadway", "Baltimore, MD 21231"]}, "phone": "+14103270011", "display_phone": "(410) 327-0011", "distance": 3150.494408960339}, {"id": "PEbu8PycdKIVAcDP4Sxm0w", "alias": "hh-tea-baltimore", "name": "HH Tea", "image_url": "https://s3-media2.fl.yelpcdn.com/bphoto/ITHMTDJgqIwN7FxFWP5QLw/o.jpg", "is_closed": false, "url": "https://www.yelp.com/biz/hh-tea-baltimore?adjust_creative=bdjMmkM5eh5bUOeX_Vuivw&utm_campaign=yelp_api_v3&utm_medium=api_v3_business_search&utm_source=bdjMmkM5eh5bUOeX_Vuivw", "review_count": 94, "categories": [{"alias": "bubbletea", "title": "Bubble Tea"}], "rating": 3.9, "coordinates": {"latitude": 39.30364, "longitude": -76.61705}, "transactions": ["pickup", "delivery"], "price": "$", "location": {"address1": "30 W Biddle St", "address2": "", "address3": null, "city": "Baltimore", "zip_code": "21201", "country": "US", "state": "MD", "display_address": ["30 W Biddle St", "Baltimore, MD 21201"]}, "phone": "+14435634544", "display_phone": "(443) 563-4544", "distance": 942.1406422946056}, {"id": "_BM-WPCdkA8hDoV0Vpa7XQ", "alias": "the-market-at-belvedere-square-baltimore-2", "name": "The Market at Belvedere Square", "image_url": "https://s3-media4.fl.yelpcdn.com/bphoto/T73-Wr9Td3nCtVj674Xr_Q/o.jpg", "is_closed": false, "url": "https://www.yelp.com/biz/the-market-at-belvedere-square-baltimore-2?adjust_creative=bdjMmkM5eh5bUOeX_Vuivw&utm_campaign=yelp_api_v3&utm_medium=api_v3_business_search&utm_source=bdjMmkM5eh5bUOeX_Vuivw", "review_count": 57, "categories": [{"alias": "farmersmarket", "title": "Farmers Market"}], "rating": 4.5, "coordinates": {"latitude": 39.3643112, "longitude": -76.6084366}, "transactions": [], "price": "$$", "location": {"address1": "540 E Belvedere Ave", "address2": "", "address3": "", "city": "Baltimore", "zip_code": "21212", "country": "US", "state": "MD", "display_address": ["540 E Belvedere Ave", "Baltimore, MD 21212"]}, "phone": "+14104649773", "display_phone": "(410) 464-9773", "distance": 6144.118911729912}, {"id": "PqEqArox_p9Uu9LVtQ4XOg", "alias": "woodberry-kitchen-baltimore-5", "name": "Woodberry Kitchen", "image_url": "https://s3-media4.fl.yelpcdn.com/bphoto/BIO1Z2qwHW_GnGr5D1TAVQ/o.jpg", "is_closed": false, "url": "https://www.yelp.com/biz/woodberry-kitchen-baltimore-5?adjust_creative=bdjMmkM5eh5bUOeX_Vuivw&utm_campaign=yelp_api_v3&utm_medium=api_v3_business_search&utm_source=bdjMmkM5eh5bUOeX_Vuivw", "review_count": 2408, "categories": [{"alias": "tradamerican", "title": "American"}], "rating": 4.1, "coordinates": {"latitude": 39.33208198522354, "longitude": -76.64535297055222}, "transactions": ["pickup"], "price": "$$$", "location": {"address1": "2010 Clipper Park Rd", "address2": "Ste 126", "address3": "", "city": "Baltimore", "zip_code": "21211", "country": "US", "state": "MD", "display_address": ["2010 Clipper Park Rd", "Ste 126", "Baltimore, MD 21211"]}, "phone": "", "display_phone": "", "distance": 4022.8024227347923}, {"id": "rs94nNQPBrefjY6_tVf7XA", "alias": "matsu-japanese-restaurant-linthicum", "name": "Matsu Japanese Restaurant", "image_url": "https://s3-media2.fl.yelpcdn.com/bphoto/nLKPi5ZTY2UpQYRcnkqi-w/o.jpg", "is_closed": false, "url": "https://www.yelp.com/biz/matsu-japanese-restaurant-linthicum?adjust_creative=bdjMmkM5eh5bUOeX_Vuivw&utm_campaign=yelp_api_v3&utm_medium=api_v3_business_search&utm_source=bdjMmkM5eh5bUOeX_Vuivw", "review_count": 158, "categories": [{"alias": "japanese", "title": "Japanese"}, {"alias": "sushi", "title": "Sushi Bars"}], "rating": 3.9, "coordinates": {"latitude": 39.200668687709, "longitude": -76.654895045621}, "transactions": ["pickup"], "price": "$$", "location": {"address1": "517 S Camp Meade Rd", "address2": "", "address3": "", "city": "Linthicum", "zip_code": "21090", "country": "US", "state": "MD", "display_address": ["517 S Camp Meade Rd", "Linthicum, MD 21090"]}, "phone": "+14108500009", "display_phone": "(410) 850-0009", "distance": 12706.685792046159}, {"id": "SSy5VlcCPzbvdPqdgJ3ZbA", "alias": "r-house-baltimore", "name": "R. House", "image_url": "https://s3-media4.fl.yelpcdn.com/bphoto/Umdr3P-ZkL-is1k6tkpFNg/o.jpg", "is_closed": false, "url": "https://www.yelp.com/biz/r-house-baltimore?adjust_creative=bdjMmkM5eh5bUOeX_Vuivw&utm_campaign=yelp_api_v3&utm_medium=api_v3_business_search&utm_source=bdjMmkM5eh5bUOeX_Vuivw", "review_count": 562, "categories": [{"alias": "bars", "title": "Bars"}, {"alias": "tacos", "title": "Tacos"}, {"alias": "sandwiches", "title": "Sandwiches"}], "rating": 4.2, "coordinates": {"latitude": 39.3217129089992, "longitude": -76.6222934424877}, "transactions": [], "price": "$$", "location": {"address1": "301 W 29th St", "address2": "", "address3": null, "city": "Baltimore", "zip_code": "21211", "country": "US", "state": "MD", "display_address": ["301 W 29th St", "Baltimore, MD 21211"]}, "phone": "+14433473570", "display_phone": "(443) 347-3570", "distance": 1791.4925872887213}, {"id": "GrY_7WvQT6iwDghmJLCW8w", "alias": "spice-and-dice-towson-2", "name": "Spice & Dice", "image_url": "https://s3-media2.fl.yelpcdn.com/bphoto/yM4nxoI7cz6btdXIYznPeA/o.jpg", "is_closed": false, "url": "https://www.yelp.com/biz/spice-and-dice-towson-2?adjust_creative=bdjMmkM5eh5bUOeX_Vuivw&utm_campaign=yelp_api_v3&utm_medium=api_v3_business_search&utm_source=bdjMmkM5eh5bUOeX_Vuivw", "review_count": 815, "categories": [{"alias": "thai", "title": "Thai"}, {"alias": "soup", "title": "Soup"}, {"alias": "noodles", "title": "Noodles"}], "rating": 3.9, "coordinates": {"latitude": 39.396586, "longitude": -76.576949}, "transactions": ["delivery"], "price": "$$", "location": {"address1": "1220A E Joppa Rd", "address2": "Ste 106", "address3": "", "city": "Towson", "zip_code": "21286", "country": "US", "state": "MD", "display_address": ["1220A E Joppa Rd", "Ste 106", "Towson, MD 21286"]}, "phone": "+14104948777", "display_phone": "(410) 494-8777", "distance": 10090.94953395718}, {"id": "m4z8d3ZA6uv5DHAl3vdH7Q", "alias": "naked-grill-sushi-and-yakitori-baltimore", "name": "Naked Grill Sushi & Yakitori", "image_url": "https://s3-media4.fl.yelpcdn.com/bphoto/2qdSKAQJTHJItKKS1kVPnw/o.jpg", "is_closed": false, "url": "https://www.yelp.com/biz/naked-grill-sushi-and-yakitori-baltimore?adjust_creative=bdjMmkM5eh5bUOeX_Vuivw&utm_campaign=yelp_api_v3&utm_medium=api_v3_business_search&utm_source=bdjMmkM5eh5bUOeX_Vuivw", "review_count": 59, "categories": [{"alias": "sushi", "title": "Sushi Bars"}, {"alias": "asianfusion", "title": "Asian Fusion"}, {"alias": "thai", "title": "Thai"}], "rating": 4.4, "coordinates": {"latitude": 39.2782275, "longitude": -76.57795217}, "transactions": ["pickup", "delivery"], "location": {"address1": "2748 Lighthouse Point E", "address2": null, "address3": "", "city": "Baltimore", "zip_code": "21224", "country": "US", "state": "MD", "display_address": ["2748 Lighthouse Point E", "Baltimore, MD 21224"]}, "phone": "+14105348888", "display_phone": "(410) 534-8888", "distance": 4353.338552089456}, {"id": "qMb0n5nzmBDhn5PQpZkq0w", "alias": "umi-sake-cockeysville-3", "name": "Umi Sake", "image_url": "https://s3-media2.fl.yelpcdn.com/bphoto/oJPGf19-6l0HoiOFgk3WRA/o.jpg", "is_closed": false, "url": "https://www.yelp.com/biz/umi-sake-cockeysville-3?adjust_creative=bdjMmkM5eh5bUOeX_Vuivw&utm_campaign=yelp_api_v3&utm_medium=api_v3_business_search&utm_source=bdjMmkM5eh5bUOeX_Vuivw", "review_count": 205, "categories": [{"alias": "sushi", "title": "Sushi Bars"}, {"alias": "asianfusion", "title": "Asian Fusion"}], "rating": 4.0, "coordinates": {"latitude": 39.4579499, "longitude": -76.63441}, "transactions": ["pickup", "delivery"], "price": "$$", "location": {"address1": "9726 York Rd", "address2": null, "address3": null, "city": "Cockeysville", "zip_code": "21030", "country": "US", "state": "MD", "display_address": ["9726 York Rd", "Cockeysville, MD 21030"]}, "phone": "+14106676585", "display_phone": "(410) 667-6585", "distance": 16682.173582472107}, {"id": "4-Ocg8gbGPrc2Y_zqTa_TQ", "alias": "new-generation-hot-pot-towson-2", "name": "New Generation Hot Pot", "image_url": "https://s3-media3.fl.yelpcdn.com/bphoto/9sSt9-uxhSSQ3eGeRBnx6Q/o.jpg", "is_closed": false, "url": "https://www.yelp.com/biz/new-generation-hot-pot-towson-2?adjust_creative=bdjMmkM5eh5bUOeX_Vuivw&utm_campaign=yelp_api_v3&utm_medium=api_v3_business_search&utm_source=bdjMmkM5eh5bUOeX_Vuivw", "review_count": 173, "categories": [{"alias": "hotpot", "title": "Hot Pot"}, {"alias": "chinese", "title": "Chinese"}, {"alias": "seafood", "title": "Seafood"}], "rating": 4.1, "coordinates": {"latitude": 39.39956, "longitude": -76.6028}, "transactions": ["delivery"], "price": "$$", "location": {"address1": "413 York Rd", "address2": null, "address3": "", "city": "Towson", "zip_code": "21204", "country": "US", "state": "MD", "display_address": ["413 York Rd", "Towson, MD 21204"]}, "phone": "+16673082998", "display_phone": "(667) 308-2998", "distance": 10094.05310194396}, {"id": "21VPL2aT-DY8zVJtGd5eOQ", "alias": "ajumma-cuisine-baltimore", "name": "Ajumma Cuisine", "image_url": "https://s3-media1.fl.yelpcdn.com/bphoto/wnciQ9jhbUfSUZwX1aAu9g/o.jpg", "is_closed": false, "url": "https://www.yelp.com/biz/ajumma-cuisine-baltimore?adjust_creative=bdjMmkM5eh5bUOeX_Vuivw&utm_campaign=yelp_api_v3&utm_medium=api_v3_business_search&utm_source=bdjMmkM5eh5bUOeX_Vuivw", "review_count": 94, "categories": [{"alias": "korean", "title": "Korean"}, {"alias": "asianfusion", "title": "Asian Fusion"}], "rating": 3.5, "coordinates": {"latitude": 39.3267135620117, "longitude": -76.6155624389648}, "transactions": [], "price": "$", "location": {"address1": "3121 St Paul St", "address2": "", "address3": "", "city": "Baltimore", "zip_code": "21218", "country": "US", "state": "MD", "display_address": ["3121 St Paul St", "Baltimore, MD 21218"]}, "phone": "+14102354429", "display_phone": "(410) 235-4429", "distance": 2019.7994248274645}, {"id": "03GWkL10s565ud361vPnfw", "alias": "beseto-asian-food-court-catonsville", "name": "Beseto Asian Food Court", "image_url": "https://s3-media2.fl.yelpcdn.com/bphoto/ZelU-FTHyKUoBelabeQ0yQ/o.jpg", "is_closed": false, "url": "https://www.yelp.com/biz/beseto-asian-food-court-catonsville?adjust_creative=bdjMmkM5eh5bUOeX_Vuivw&utm_campaign=yelp_api_v3&utm_medium=api_v3_business_search&utm_source=bdjMmkM5eh5bUOeX_Vuivw", "review_count": 104, "categories": [{"alias": "food_court", "title": "Food Court"}], "rating": 4.1, "coordinates": {"latitude": 39.282779, "longitude": -76.754923}, "transactions": ["delivery"], "price": "$$", "location": {"address1": "822 N Rolling Rd", "address2": "", "address3": "", "city": "Catonsville", "zip_code": "21228", "country": "US", "state": "MD", "display_address": ["822 N Rolling Rd", "Catonsville, MD 21228"]}, "phone": "+14107882600", "display_phone": "(410) 788-2600", "distance": 12894.942507278842}, {"id": "Cjio54oyMbeogXugn7gAxQ", "alias": "sushi-hana-baltimore-baltimore", "name": "Sushi Hana - Baltimore", "image_url": "https://s3-media3.fl.yelpcdn.com/bphoto/Wxp890mnQ7b_98T4DOKjlQ/o.jpg", "is_closed": false, "url": "https://www.yelp.com/biz/sushi-hana-baltimore-baltimore?adjust_creative=bdjMmkM5eh5bUOeX_Vuivw&utm_campaign=yelp_api_v3&utm_medium=api_v3_business_search&utm_source=bdjMmkM5eh5bUOeX_Vuivw", "review_count": 107, "categories": [{"alias": "sushi", "title": "Sushi Bars"}, {"alias": "ramen", "title": "Ramen"}], "rating": 3.4, "coordinates": {"latitude": 39.373465, "longitude": -76.650794}, "transactions": ["pickup", "delivery"], "location": {"address1": "6080 Falls Rd", "address2": "Ste 11", "address3": "", "city": "Baltimore", "zip_code": "21209", "country": "US", "state": "MD", "display_address": ["6080 Falls Rd", "Ste 11", "Baltimore, MD 21209"]}, "phone": "+14103774228", "display_phone": "(410) 377-4228", "distance": 7959.129813032663}, {"id": "dEbUDrZbAfGay6jCWry-Jg", "alias": "gachi-house-of-sushi-baltimore", "name": "Gachi House of Sushi", "image_url": "https://s3-media1.fl.yelpcdn.com/bphoto/d5ADC_-dtKHq602CtXHDyw/o.jpg", "is_closed": false, "url": "https://www.yelp.com/biz/gachi-house-of-sushi-baltimore?adjust_creative=bdjMmkM5eh5bUOeX_Vuivw&utm_campaign=yelp_api_v3&utm_medium=api_v3_business_search&utm_source=bdjMmkM5eh5bUOeX_Vuivw", "review_count": 322, "categories": [{"alias": "japanese", "title": "Japanese"}, {"alias": "sushi", "title": "Sushi Bars"}, {"alias": "asianfusion", "title": "Asian Fusion"}], "rating": 4.5, "coordinates": {"latitude": 39.18034553636451, "longitude": -76.67266899447772}, "transactions": [], "price": "$$", "location": {"address1": "BWI Thurgood Marshall Airport", "address2": "", "address3": "Terminal A", "city": "Baltimore", "zip_code": "21240", "country": "US", "state": "MD", "display_address": ["BWI Thurgood Marshall Airport", "Terminal A", "Baltimore, MD 21240"]}, "phone": "+14108594250", "display_phone": "(410) 859-4250", "distance": 15348.916868348819}, {"id": "pD2RH2qnYJ4tAzpbekXWTQ", "alias": "be-bim-korean-bbq-baltimore", "name": "Be.bim Korean BBQ", "image_url": "https://s3-media2.fl.yelpcdn.com/bphoto/p8sVnUbUo_arlWiDoViLoA/o.jpg", "is_closed": false, "url": "https://www.yelp.com/biz/be-bim-korean-bbq-baltimore?adjust_creative=bdjMmkM5eh5bUOeX_Vuivw&utm_campaign=yelp_api_v3&utm_medium=api_v3_business_search&utm_source=bdjMmkM5eh5bUOeX_Vuivw", "review_count": 74, "categories": [{"alias": "korean", "title": "Korean"}, {"alias": "bbq", "title": "Barbeque"}], "rating": 3.2, "coordinates": {"latitude": 39.32162, "longitude": -76.6222}, "transactions": ["pickup", "delivery"], "price": "$$", "location": {"address1": "301 W 29th St", "address2": "", "address3": null, "city": "Baltimore", "zip_code": "21211", "country": "US", "state": "MD", "display_address": ["301 W 29th St", "Baltimore, MD 21211"]}, "phone": "", "display_phone": "", "distance": 1789.8958372375748}, {"id": "yMhmJGg9jQOK6njfJfQnOA", "alias": "koho-korean-bbq-house-hanover", "name": "Koho Korean BBQ House", "image_url": "https://s3-media3.fl.yelpcdn.com/bphoto/TzgXvJhyMwHBm55lpJXEbQ/o.jpg", "is_closed": false, "url": "https://www.yelp.com/biz/koho-korean-bbq-house-hanover?adjust_creative=bdjMmkM5eh5bUOeX_Vuivw&utm_campaign=yelp_api_v3&utm_medium=api_v3_business_search&utm_source=bdjMmkM5eh5bUOeX_Vuivw", "review_count": 40, "categories": [{"alias": "korean", "title": "Korean"}, {"alias": "bbq", "title": "Barbeque"}, {"alias": "cocktailbars", "title": "Cocktail Bars"}], "rating": 4.4, "coordinates": {"latitude": 39.157115470406374, "longitude": -76.7265117}, "transactions": [], "location": {"address1": "7002 Arundel Mills Cir", "address2": "", "address3": null, "city": "Hanover", "zip_code": "21076", "country": "US", "state": "MD", "display_address": ["7002 Arundel Mills Cir", "Hanover, MD 21076"]}, "phone": "+14432227777", "display_phone": "(443) 222-7777", "distance": 19714.86612555223}, {"id": "1qV_NRA4rGCiwrajhby8Ug", "alias": "seoul-fusion-owings-mills-4", "name": "Seoul Fusion", "image_url": "https://s3-media2.fl.yelpcdn.com/bphoto/_vCavoJYPfhnyLkSZX05WA/o.jpg", "is_closed": false, "url": "https://www.yelp.com/biz/seoul-fusion-owings-mills-4?adjust_creative=bdjMmkM5eh5bUOeX_Vuivw&utm_campaign=yelp_api_v3&utm_medium=api_v3_business_search&utm_source=bdjMmkM5eh5bUOeX_Vuivw", "review_count": 45, "categories": [{"alias": "asianfusion", "title": "Asian Fusion"}, {"alias": "korean", "title": "Korean"}, {"alias": "bubbletea", "title": "Bubble Tea"}], "rating": 4.3, "coordinates": {"latitude": 39.426791, "longitude": -76.781069}, "transactions": ["pickup", "delivery"], "location": {"address1": "11000 Owings Mills Blvd", "address2": "Ste 1", "address3": "", "city": "Owings Mills", "zip_code": "21117", "country": "US", "state": "MD", "display_address": ["11000 Owings Mills Blvd", "Ste 1", "Owings Mills, MD 21117"]}, "phone": "", "display_phone": "", "distance": 19731.04419083493}, {"id": "7KtqjJyVY9II6vSr1C_rgg", "alias": "sushi-sakura-pikesville", "name": "Sushi Sakura", "image_url": "https://s3-media1.fl.yelpcdn.com/bphoto/h2mMco3kEH-OwbYSvuOG_w/o.jpg", "is_closed": false, "url": "https://www.yelp.com/biz/sushi-sakura-pikesville?adjust_creative=bdjMmkM5eh5bUOeX_Vuivw&utm_campaign=yelp_api_v3&utm_medium=api_v3_business_search&utm_source=bdjMmkM5eh5bUOeX_Vuivw", "review_count": 95, "categories": [{"alias": "japanese", "title": "Japanese"}, {"alias": "sushi", "title": "Sushi Bars"}, {"alias": "kosher", "title": "Kosher"}], "rating": 3.7, "coordinates": {"latitude": 39.3786007, "longitude": -76.7240596}, "transactions": [], "price": "$$", "location": {"address1": "3755 Old Ct Rd", "address2": "Ste F", "address3": "", "city": "Pikesville", "zip_code": "21208", "country": "US", "state": "MD", "display_address": ["3755 Old Ct Rd", "Ste F", "Pikesville, MD 21208"]}, "phone": "+14105801155", "display_phone": "(410) 580-1155", "distance": 12539.329009867664}, {"id": "SvVrpe8VqglIRNhfOo1_1A", "alias": "iron-rooster-baltimore", "name": "Iron Rooster", "image_url": "https://s3-media2.fl.yelpcdn.com/bphoto/ZV8WyYODu1IkuTxEJ9ZC_w/o.jpg", "is_closed": false, "url": "https://www.yelp.com/biz/iron-rooster-baltimore?adjust_creative=bdjMmkM5eh5bUOeX_Vuivw&utm_campaign=yelp_api_v3&utm_medium=api_v3_business_search&utm_source=bdjMmkM5eh5bUOeX_Vuivw", "review_count": 1074, "categories": [{"alias": "tradamerican", "title": "American"}, {"alias": "breakfast_brunch", "title": "Breakfast & Brunch"}], "rating": 3.9, "coordinates": {"latitude": 39.2764795638087, "longitude": -76.5653344920654}, "transactions": ["pickup", "delivery"], "price": "$$", "location": {"address1": "3721 Boston St", "address2": "", "address3": "Canton Crossing", "city": "Baltimore", "zip_code": "21224", "country": "US", "state": "MD", "display_address": ["3721 Boston St", "Canton Crossing", "Baltimore, MD 21224"]}, "phone": "+14107622100", "display_phone": "(410) 762-2100", "distance": 5239.549640006344}, {"id": "7Fpkt7wzJdISBo0rS9M6Dg", "alias": "kona-grill-baltimore-baltimore-2", "name": "Kona Grill", "image_url": "https://s3-media1.fl.yelpcdn.com/bphoto/aHioE_fXLaa_KhAVfAnBNg/o.jpg", "is_closed": false, "url": "https://www.yelp.com/biz/kona-grill-baltimore-baltimore-2?adjust_creative=bdjMmkM5eh5bUOeX_Vuivw&utm_campaign=yelp_api_v3&utm_medium=api_v3_business_search&utm_source=bdjMmkM5eh5bUOeX_Vuivw", "review_count": 1018, "categories": [{"alias": "newamerican", "title": "New American"}, {"alias": "sushi", "title": "Sushi Bars"}, {"alias": "hawaiian", "title": "Hawaiian"}], "rating": 3.3, "coordinates": {"latitude": 39.28622611401389, "longitude": -76.61420267055229}, "transactions": ["pickup", "delivery"], "price": "$$", "location": {"address1": "1 E Pratt St", "address2": "Ste 103", "address3": "", "city": "Baltimore", "zip_code": "21202", "country": "US", "state": "MD", "display_address": ["1 E Pratt St", "Ste 103", "Baltimore, MD 21202"]}, "phone": "+14102448994", "display_phone": "(410) 244-8994", "distance": 2602.3711330816022}, {"id": "tjGIl74ZcWXYKZekomAqSQ", "alias": "sushi-q2-owings-mills-owings-mills", "name": "Sushi Q2 - Owings Mills", "image_url": "https://s3-media2.fl.yelpcdn.com/bphoto/CMO_NYIKWbCKHtnpAzEXzA/o.jpg", "is_closed": false, "url": "https://www.yelp.com/biz/sushi-q2-owings-mills-owings-mills?adjust_creative=bdjMmkM5eh5bUOeX_Vuivw&utm_campaign=yelp_api_v3&utm_medium=api_v3_business_search&utm_source=bdjMmkM5eh5bUOeX_Vuivw", "review_count": 287, "categories": [{"alias": "sushi", "title": "Sushi Bars"}, {"alias": "japanese", "title": "Japanese"}], "rating": 4.4, "coordinates": {"latitude": 39.42317, "longitude": -76.80605}, "transactions": ["delivery"], "price": "$$", "location": {"address1": "10999 Red Run Blvd", "address2": "", "address3": "", "city": "Owings Mills", "zip_code": "21117", "country": "US", "state": "MD", "display_address": ["10999 Red Run Blvd", "Owings Mills, MD 21117"]}, "phone": "+14103631878", "display_phone": "(410) 363-1878", "distance": 21133.865309807446}, {"id": "jp6Jal0HgUizYs1xJXpfag", "alias": "alma-cocina-latina-baltimore", "name": "Alma Cocina Latina", "image_url": "https://s3-media2.fl.yelpcdn.com/bphoto/Rexf2Kef55PAeC5tYOUY7g/o.jpg", "is_closed": false, "url": "https://www.yelp.com/biz/alma-cocina-latina-baltimore?adjust_creative=bdjMmkM5eh5bUOeX_Vuivw&utm_campaign=yelp_api_v3&utm_medium=api_v3_business_search&utm_source=bdjMmkM5eh5bUOeX_Vuivw", "review_count": 462, "categories": [{"alias": "venezuelan", "title": "Venezuelan"}, {"alias": "cocktailbars", "title": "Cocktail Bars"}], "rating": 4.3, "coordinates": {"latitude": 39.3089608022934, "longitude": -76.6161578}, "transactions": ["delivery"], "price": "$$$", "location": {"address1": "1701 N Charles St", "address2": "", "address3": "", "city": "Baltimore", "zip_code": "21201", "country": "US", "state": "MD", "display_address": ["1701 N Charles St", "Baltimore, MD 21201"]}, "phone": "+16672124273", "display_phone": "(667) 212-4273", "distance": 613.5131326110715}, {"id": "eW40llUTvlGGcLqb28sSmA", "alias": "artifact-coffee-baltimore", "name": "Artifact Coffee", "image_url": "https://s3-media4.fl.yelpcdn.com/bphoto/wBvVOkrmEU2RWVOgtCkfYg/o.jpg", "is_closed": false, "url": "https://www.yelp.com/biz/artifact-coffee-baltimore?adjust_creative=bdjMmkM5eh5bUOeX_Vuivw&utm_campaign=yelp_api_v3&utm_medium=api_v3_business_search&utm_source=bdjMmkM5eh5bUOeX_Vuivw", "review_count": 627, "categories": [{"alias": "cafes", "title": "Cafes"}, {"alias": "coffee", "title": "Coffee & Tea"}], "rating": 4.0, "coordinates": {"latitude": 39.3323352622044, "longitude": -76.641398876826}, "transactions": ["pickup", "delivery"], "price": "$$", "location": {"address1": "1500 Union Ave", "address2": "Ste 114", "address3": "", "city": "Baltimore", "zip_code": "21211", "country": "US", "state": "MD", "display_address": ["1500 Union Ave", "Ste 114", "Baltimore, MD 21211"]}, "phone": "+14102351881", "display_phone": "(410) 235-1881", "distance": 3783.802025257596}, {"id": "ieS_5zqxDHcWMCm8BKUYbg", "alias": "thames-street-oyster-house-baltimore", "name": "Thames Street Oyster House", "image_url": "https://s3-media4.fl.yelpcdn.com/bphoto/SLti9zFJjM7IWO3UC8vH3w/o.jpg", "is_closed": false, "url": "https://www.yelp.com/biz/thames-street-oyster-house-baltimore?adjust_creative=bdjMmkM5eh5bUOeX_Vuivw&utm_campaign=yelp_api_v3&utm_medium=api_v3_business_search&utm_source=bdjMmkM5eh5bUOeX_Vuivw", "review_count": 3143, "categories": [{"alias": "seafood", "title": "Seafood"}, {"alias": "raw_food", "title": "Live/Raw Food"}], "rating": 4.5, "coordinates": {"latitude": 39.28214, "longitude": -76.59162}, "transactions": ["delivery"], "price": "$$$", "location": {"address1": "1728 Thames St", "address2": "", "address3": "", "city": "Baltimore", "zip_code": "21231", "country": "US", "state": "MD", "display_address": ["1728 Thames St", "Baltimore, MD 21231"]}, "phone": "+14434497726", "display_phone": "(443) 449-7726", "distance": 3377.766395616593}, {"id": "z73Df_CdOh1Qzm7VuJa2_Q", "alias": "poke-bowl-owings-mills", "name": "Poke Bowl", "image_url": "https://s3-media3.fl.yelpcdn.com/bphoto/tK_YiThxvevfsWulPJYRZQ/o.jpg", "is_closed": false, "url": "https://www.yelp.com/biz/poke-bowl-owings-mills?adjust_creative=bdjMmkM5eh5bUOeX_Vuivw&utm_campaign=yelp_api_v3&utm_medium=api_v3_business_search&utm_source=bdjMmkM5eh5bUOeX_Vuivw", "review_count": 54, "categories": [{"alias": "sushi", "title": "Sushi Bars"}, {"alias": "poke", "title": "Poke"}, {"alias": "hawaiian", "title": "Hawaiian"}], "rating": 3.9, "coordinates": {"latitude": 39.412967, "longitude": -76.772722}, "transactions": ["pickup", "delivery"], "location": {"address1": "10130 Reisterstown Rd", "address2": "Ste 10", "address3": null, "city": "Owings Mills", "zip_code": "21117", "country": "US", "state": "MD", "display_address": ["10130 Reisterstown Rd", "Ste 10", "Owings Mills, MD 21117"]}, "phone": "+14107779377", "display_phone": "(410) 777-9377", "distance": 18190.595990568785}, {"id": "8Mjdcm7G4-crGtZdKphs8A", "alias": "brown-rice-baltimore-2", "name": "Brown Rice", "image_url": "https://s3-media2.fl.yelpcdn.com/bphoto/JP6KICalkJw3UuGQ4FzKcw/o.jpg", "is_closed": false, "url": "https://www.yelp.com/biz/brown-rice-baltimore-2?adjust_creative=bdjMmkM5eh5bUOeX_Vuivw&utm_campaign=yelp_api_v3&utm_medium=api_v3_business_search&utm_source=bdjMmkM5eh5bUOeX_Vuivw", "review_count": 92, "categories": [{"alias": "korean", "title": "Korean"}, {"alias": "hotdogs", "title": "Fast Food"}, {"alias": "vegetarian", "title": "Vegetarian"}], "rating": 4.2, "coordinates": {"latitude": 39.29584, "longitude": -76.61904}, "transactions": ["pickup", "delivery"], "price": "$", "location": {"address1": "520 Park Ave", "address2": "", "address3": "Mt Vernon Marketplace", "city": "Baltimore", "zip_code": "21201", "country": "US", "state": "MD", "display_address": ["520 Park Ave", "Mt Vernon Marketplace", "Baltimore, MD 21201"]}, "phone": "+14435521962", "display_phone": "(443) 552-1962", "distance": 1696.3046454897951}, {"id": "ZXllmuS-9WFrYKPv9cIg0Q", "alias": "sakura-teppanyaki-middle-river", "name": "Sakura Teppanyaki", "image_url": "https://s3-media1.fl.yelpcdn.com/bphoto/WID4iQaMZhXP5Im7GO90Hg/o.jpg", "is_closed": false, "url": "https://www.yelp.com/biz/sakura-teppanyaki-middle-river?adjust_creative=bdjMmkM5eh5bUOeX_Vuivw&utm_campaign=yelp_api_v3&utm_medium=api_v3_business_search&utm_source=bdjMmkM5eh5bUOeX_Vuivw", "review_count": 48, "categories": [{"alias": "chinese", "title": "Chinese"}, {"alias": "japanese", "title": "Japanese"}], "rating": 3.9, "coordinates": {"latitude": 39.3349758154422, "longitude": -76.4478251338005}, "transactions": ["pickup", "delivery"], "price": "$", "location": {"address1": "1366 Martin Blvd", "address2": "", "address3": "", "city": "Middle River", "zip_code": "21220", "country": "US", "state": "MD", "display_address": ["1366 Martin Blvd", "Middle River, MD 21220"]}, "phone": "+14106862003", "display_phone": "(410) 686-2003", "distance": 14158.758989725611}, {"id": "vziISH-B9jwzW6iUQ6sEMA", "alias": "maggies-farm-baltimore", "name": "Maggie's Farm", "image_url": "https://s3-media4.fl.yelpcdn.com/bphoto/Zr0y8cv49-usEqDjqYWilA/o.jpg", "is_closed": false, "url": "https://www.yelp.com/biz/maggies-farm-baltimore?adjust_creative=bdjMmkM5eh5bUOeX_Vuivw&utm_campaign=yelp_api_v3&utm_medium=api_v3_business_search&utm_source=bdjMmkM5eh5bUOeX_Vuivw", "review_count": 373, "categories": [{"alias": "newamerican", "title": "New American"}, {"alias": "comfortfood", "title": "Comfort Food"}, {"alias": "cocktailbars", "title": "Cocktail Bars"}], "rating": 4.1, "coordinates": {"latitude": 39.339428, "longitude": -76.572469}, "transactions": ["pickup", "delivery"], "price": "$$", "location": {"address1": "4341 Harford Rd", "address2": "", "address3": "", "city": "Baltimore", "zip_code": "21214", "country": "US", "state": "MD", "display_address": ["4341 Harford Rd", "Baltimore, MD 21214"]}, "phone": "+14102542376", "display_phone": "(410) 254-2376", "distance": 4596.578955346671}, {"id": "ILzD4uP51yrZURjvgGKw5Q", "alias": "sushi-q-elkridge-elkridge", "name": "Sushi Q - Elkridge", "image_url": "https://s3-media4.fl.yelpcdn.com/bphoto/xEhl26ICKDoQrmSDZ2Dk0w/o.jpg", "is_closed": false, "url": "https://www.yelp.com/biz/sushi-q-elkridge-elkridge?adjust_creative=bdjMmkM5eh5bUOeX_Vuivw&utm_campaign=yelp_api_v3&utm_medium=api_v3_business_search&utm_source=bdjMmkM5eh5bUOeX_Vuivw", "review_count": 997, "categories": [{"alias": "japanese", "title": "Japanese"}, {"alias": "sushi", "title": "Sushi Bars"}, {"alias": "asianfusion", "title": "Asian Fusion"}], "rating": 4.2, "coordinates": {"latitude": 39.20562, "longitude": -76.72836}, "transactions": ["delivery"], "price": "$$", "location": {"address1": "6325 Washington Blvd", "address2": "Unit F", "address3": "", "city": "Elkridge", "zip_code": "21075", "country": "US", "state": "MD", "display_address": ["6325 Washington Blvd", "Unit F", "Elkridge, MD 21075"]}, "phone": "+14105792453", "display_phone": "(410) 579-2453", "distance": 15443.51717407398}, {"id": "KSQmQ7myPBY-z8xic0ng4g", "alias": "red-tigers-korean-fusion-grill-pasadena", "name": "Red Tigers Korean Fusion Grill", "image_url": "https://s3-media1.fl.yelpcdn.com/bphoto/QNtylPbU1dju4PZHBDs-UQ/o.jpg", "is_closed": false, "url": "https://www.yelp.com/biz/red-tigers-korean-fusion-grill-pasadena?adjust_creative=bdjMmkM5eh5bUOeX_Vuivw&utm_campaign=yelp_api_v3&utm_medium=api_v3_business_search&utm_source=bdjMmkM5eh5bUOeX_Vuivw", "review_count": 138, "categories": [{"alias": "bbq", "title": "Barbeque"}, {"alias": "korean", "title": "Korean"}, {"alias": "bubbletea", "title": "Bubble Tea"}], "rating": 4.7, "coordinates": {"latitude": 39.1578849156783, "longitude": -76.5161926740479}, "transactions": ["pickup", "delivery"], "location": {"address1": "8487 Fort Smallwood Rd", "address2": "", "address3": null, "city": "Pasadena", "zip_code": "21122", "country": "US", "state": "MD", "display_address": ["8487 Fort Smallwood Rd", "Pasadena, MD 21122"]}, "phone": "+14104376544", "display_phone": "(410) 437-6544", "distance": 18637.766429763004}, {"id": "32kPGuT26Vzq_i2GWOgbyw", "alias": "minato-sushi-bar-baltimore", "name": "Minato Sushi Bar", "image_url": "https://s3-media2.fl.yelpcdn.com/bphoto/WXB5vvjkgE-KKu-haP5fHg/o.jpg", "is_closed": false, "url": "https://www.yelp.com/biz/minato-sushi-bar-baltimore?adjust_creative=bdjMmkM5eh5bUOeX_Vuivw&utm_campaign=yelp_api_v3&utm_medium=api_v3_business_search&utm_source=bdjMmkM5eh5bUOeX_Vuivw", "review_count": 321, "categories": [{"alias": "japanese", "title": "Japanese"}, {"alias": "sushi", "title": "Sushi Bars"}], "rating": 3.7, "coordinates": {"latitude": 39.3016, "longitude": -76.61547}, "transactions": ["pickup", "delivery"], "price": "$$", "location": {"address1": "1013 N Charles St", "address2": "", "address3": "", "city": "Baltimore", "zip_code": "21201", "country": "US", "state": "MD", "display_address": ["1013 N Charles St", "Baltimore, MD 21201"]}, "phone": "+14103320332", "display_phone": "(410) 332-0332", "distance": 1027.7011972419205}, {"id": "CGjhhXpDV_5RPH5QXhV3fw", "alias": "pho-dat-thanh-towson", "name": "Pho Dat Thanh", "image_url": "https://s3-media4.fl.yelpcdn.com/bphoto/A37NEUcRMbaB50O7W4CVgg/o.jpg", "is_closed": false, "url": "https://www.yelp.com/biz/pho-dat-thanh-towson?adjust_creative=bdjMmkM5eh5bUOeX_Vuivw&utm_campaign=yelp_api_v3&utm_medium=api_v3_business_search&utm_source=bdjMmkM5eh5bUOeX_Vuivw", "review_count": 362, "categories": [{"alias": "vietnamese", "title": "Vietnamese"}], "rating": 3.3, "coordinates": {"latitude": 39.4008290744519, "longitude": -76.6020387408578}, "transactions": ["pickup", "delivery"], "price": "$$", "location": {"address1": "510 York Rd", "address2": "", "address3": "", "city": "Towson", "zip_code": "21204", "country": "US", "state": "MD", "display_address": ["510 York Rd", "Towson, MD 21204"]}, "phone": "+14102969118", "display_phone": "(410) 296-9118", "distance": 10196.87166582865}, {"id": "7tKHFm-jY5jj_CqUkemlxA", "alias": "street-food-by-water-song-towson", "name": "Street Food By Water Song", "image_url": "https://s3-media4.fl.yelpcdn.com/bphoto/-D6zsE8vzGW0gVwXuEkS-Q/o.jpg", "is_closed": false, "url": "https://www.yelp.com/biz/street-food-by-water-song-towson?adjust_creative=bdjMmkM5eh5bUOeX_Vuivw&utm_campaign=yelp_api_v3&utm_medium=api_v3_business_search&utm_source=bdjMmkM5eh5bUOeX_Vuivw", "review_count": 7, "categories": [{"alias": "noodles", "title": "Noodles"}, {"alias": "chinese", "title": "Chinese"}], "rating": 3.6, "coordinates": {"latitude": 39.39930769080989, "longitude": -76.60317731165676}, "transactions": ["pickup", "delivery"], "location": {"address1": "3 W Chesapeake Ave", "address2": null, "address3": "", "city": "Towson", "zip_code": "21204", "country": "US", "state": "MD", "display_address": ["3 W Chesapeake Ave", "Towson, MD 21204"]}, "phone": "+14439919178", "display_phone": "(443) 991-9178", "distance": 10022.602514042694}, {"id": "RROFOhnPZGGLjTjHUfRPtA", "alias": "pho-7rich-nottingham", "name": "Pho 7Rich", "image_url": "https://s3-media3.fl.yelpcdn.com/bphoto/YkU1n5GsT6HVeNP0yC3RUQ/o.jpg", "is_closed": false, "url": "https://www.yelp.com/biz/pho-7rich-nottingham?adjust_creative=bdjMmkM5eh5bUOeX_Vuivw&utm_campaign=yelp_api_v3&utm_medium=api_v3_business_search&utm_source=bdjMmkM5eh5bUOeX_Vuivw", "review_count": 137, "categories": [{"alias": "vietnamese", "title": "Vietnamese"}], "rating": 3.2, "coordinates": {"latitude": 39.398944, "longitude": -76.48194}, "transactions": ["delivery"], "price": "$$", "location": {"address1": "4136 E Joppa Rd", "address2": "Ste A", "address3": "", "city": "Nottingham", "zip_code": "21236", "country": "US", "state": "MD", "display_address": ["4136 E Joppa Rd", "Ste A", "Nottingham, MD 21236"]}, "phone": "+14102480678", "display_phone": "(410) 248-0678", "distance": 14792.324520524036}, {"id": "4iqvbEFgMs__AmY9vqsE-g", "alias": "maimura-sushi-noodle-and-korean-bbq-towson", "name": "Maimura Sushi Noodle & Korean BBQ", "image_url": "https://s3-media2.fl.yelpcdn.com/bphoto/Aj6PQ-WQK-6TrQOXV85R_A/o.jpg", "is_closed": false, "url": "https://www.yelp.com/biz/maimura-sushi-noodle-and-korean-bbq-towson?adjust_creative=bdjMmkM5eh5bUOeX_Vuivw&utm_campaign=yelp_api_v3&utm_medium=api_v3_business_search&utm_source=bdjMmkM5eh5bUOeX_Vuivw", "review_count": 111, "categories": [{"alias": "asianfusion", "title": "Asian Fusion"}, {"alias": "japanese", "title": "Japanese"}, {"alias": "korean", "title": "Korean"}], "rating": 3.2, "coordinates": {"latitude": 39.40144, "longitude": -76.60065}, "transactions": ["delivery"], "location": {"address1": "105 E Joppa Rd", "address2": null, "address3": "", "city": "Towson", "zip_code": "21286", "country": "US", "state": "MD", "display_address": ["105 E Joppa Rd", "Towson, MD 21286"]}, "phone": "+14108325300", "display_phone": "(410) 832-5300", "distance": 10269.972769903055}, {"id": "ReNdW79g_1cxrgCJpFn7cA", "alias": "b-and-o-american-brasserie-baltimore", "name": "B&O American Brasserie", "image_url": "https://s3-media2.fl.yelpcdn.com/bphoto/qBXFGtF8xyBrE4LsDdeZCw/o.jpg", "is_closed": false, "url": "https://www.yelp.com/biz/b-and-o-american-brasserie-baltimore?adjust_creative=bdjMmkM5eh5bUOeX_Vuivw&utm_campaign=yelp_api_v3&utm_medium=api_v3_business_search&utm_source=bdjMmkM5eh5bUOeX_Vuivw", "review_count": 622, "categories": [{"alias": "newamerican", "title": "New American"}, {"alias": "brasseries", "title": "Brasseries"}, {"alias": "cocktailbars", "title": "Cocktail Bars"}], "rating": 3.8, "coordinates": {"latitude": 39.2899436853933, "longitude": -76.6153600656067}, "transactions": ["pickup", "delivery"], "price": "$$", "location": {"address1": "2 N Charles St", "address2": "", "address3": "", "city": "Baltimore", "zip_code": "21201", "country": "US", "state": "MD", "display_address": ["2 N Charles St", "Baltimore, MD 21201"]}, "phone": "+14436926172", "display_phone": "(443) 692-6172", "distance": 2218.4900879704956}, {"id": "h0bL6Z6Z4JOH9uoVaTjoMg", "alias": "umi-sushi-ellicott-city-2", "name": "UMI Sushi", "image_url": "https://s3-media1.fl.yelpcdn.com/bphoto/eDOuHCJNdRa6LzlFej5Beg/o.jpg", "is_closed": false, "url": "https://www.yelp.com/biz/umi-sushi-ellicott-city-2?adjust_creative=bdjMmkM5eh5bUOeX_Vuivw&utm_campaign=yelp_api_v3&utm_medium=api_v3_business_search&utm_source=bdjMmkM5eh5bUOeX_Vuivw", "review_count": 384, "categories": [{"alias": "japanese", "title": "Japanese"}, {"alias": "sushi", "title": "Sushi Bars"}], "rating": 4.6, "coordinates": {"latitude": 39.26731, "longitude": -76.79733}, "transactions": [], "price": "$$", "location": {"address1": "8167 Main St", "address2": null, "address3": "", "city": "Ellicott City", "zip_code": "21043", "country": "US", "state": "MD", "display_address": ["8167 Main St", "Ellicott City, MD 21043"]}, "phone": "+14104801888", "display_phone": "(410) 480-1888", "distance": 16869.571172522887}, {"id": "jATYj80_ImNkvCfaGESg6w", "alias": "towson-best-chinese-and-sushi-towson", "name": "Towson Best Chinese & Sushi", "image_url": "https://s3-media1.fl.yelpcdn.com/bphoto/0DGSzCuLY22j5YrVUuTVJQ/o.jpg", "is_closed": false, "url": "https://www.yelp.com/biz/towson-best-chinese-and-sushi-towson?adjust_creative=bdjMmkM5eh5bUOeX_Vuivw&utm_campaign=yelp_api_v3&utm_medium=api_v3_business_search&utm_source=bdjMmkM5eh5bUOeX_Vuivw", "review_count": 196, "categories": [{"alias": "chinese", "title": "Chinese"}, {"alias": "sushi", "title": "Sushi Bars"}], "rating": 2.8, "coordinates": {"latitude": 39.40126, "longitude": -76.60265}, "transactions": ["pickup", "delivery"], "price": "$$", "location": {"address1": "527 York Rd", "address2": "", "address3": "", "city": "Towson", "zip_code": "21204", "country": "US", "state": "MD", "display_address": ["527 York Rd", "Towson, MD 21204"]}, "phone": "+14108253770", "display_phone": "(410) 825-3770", "distance": 10241.271516675624}, {"id": "8M__3yx-osvn73WqgfTZgQ", "alias": "taam-thai-baltimore", "name": "Taam Thai", "image_url": "https://s3-media2.fl.yelpcdn.com/bphoto/yqD3m3BX0p6noNk5W4JC5g/o.jpg", "is_closed": false, "url": "https://www.yelp.com/biz/taam-thai-baltimore?adjust_creative=bdjMmkM5eh5bUOeX_Vuivw&utm_campaign=yelp_api_v3&utm_medium=api_v3_business_search&utm_source=bdjMmkM5eh5bUOeX_Vuivw", "review_count": 25, "categories": [{"alias": "thai", "title": "Thai"}, {"alias": "sushi", "title": "Sushi Bars"}, {"alias": "chinese", "title": "Chinese"}], "rating": 4.1, "coordinates": {"latitude": 39.377315, "longitude": -76.72614}, "transactions": ["pickup", "delivery"], "location": {"address1": "1500 Reisterrstown Rd", "address2": "Unit 215", "address3": "", "city": "Baltimore", "zip_code": "21208", "country": "US", "state": "MD", "display_address": ["1500 Reisterrstown Rd", "Unit 215", "Baltimore, MD 21208"]}, "phone": "+14104840585", "display_phone": "(410) 484-0585", "distance": 12592.942027203235}, {"id": "w5wHE3ZoIYRM4aL01cT9jw", "alias": "h-mart-catonsville-catonsville", "name": "H Mart - Catonsville", "image_url": "https://s3-media3.fl.yelpcdn.com/bphoto/f-hoSIrX23J08Le5KtMrXg/o.jpg", "is_closed": false, "url": "https://www.yelp.com/biz/h-mart-catonsville-catonsville?adjust_creative=bdjMmkM5eh5bUOeX_Vuivw&utm_campaign=yelp_api_v3&utm_medium=api_v3_business_search&utm_source=bdjMmkM5eh5bUOeX_Vuivw", "review_count": 195, "categories": [{"alias": "grocery", "title": "Grocery"}, {"alias": "food_court", "title": "Food Court"}], "rating": 4.2, "coordinates": {"latitude": 39.282415, "longitude": -76.755372}, "transactions": [], "price": "$", "location": {"address1": "800 N Rolling Rd.", "address2": null, "address3": "", "city": "Catonsville", "zip_code": "21228", "country": "US", "state": "MD", "display_address": ["800 N Rolling Rd.", "Catonsville, MD 21228"]}, "phone": "+14436129020", "display_phone": "(443) 612-9020", "distance": 12941.876425703}, {"id": "K0puof90haqlAkDMDIcNqw", "alias": "new-asian-taste-baltimore-2", "name": "New Asian Taste", "image_url": "https://s3-media3.fl.yelpcdn.com/bphoto/4F3ceRMFAf-4U6SVq21pcA/o.jpg", "is_closed": false, "url": "https://www.yelp.com/biz/new-asian-taste-baltimore-2?adjust_creative=bdjMmkM5eh5bUOeX_Vuivw&utm_campaign=yelp_api_v3&utm_medium=api_v3_business_search&utm_source=bdjMmkM5eh5bUOeX_Vuivw", "review_count": 1, "categories": [{"alias": "asianfusion", "title": "Asian Fusion"}], "rating": 5.0, "coordinates": {"latitude": 39.32877, "longitude": -76.62953}, "transactions": ["pickup", "delivery"], "location": {"address1": "3400 Chestnut Ave", "address2": null, "address3": "", "city": "Baltimore", "zip_code": "21211", "country": "US", "state": "MD", "display_address": ["3400 Chestnut Ave", "Baltimore, MD 21211"]}, "phone": "+14104670100", "display_phone": "(410) 467-0100", "distance": 2792.1791413313426}, {"id": "6VVVlHNNSGSTuQ2oJ7JKSw", "alias": "yoya-baltimore", "name": "Yoya", "image_url": "https://s3-media3.fl.yelpcdn.com/bphoto/rKJz26Us4z4JmEAV8EQhyg/o.jpg", "is_closed": false, "url": "https://www.yelp.com/biz/yoya-baltimore?adjust_creative=bdjMmkM5eh5bUOeX_Vuivw&utm_campaign=yelp_api_v3&utm_medium=api_v3_business_search&utm_source=bdjMmkM5eh5bUOeX_Vuivw", "review_count": 9, "categories": [{"alias": "sushi", "title": "Sushi Bars"}], "rating": 4.0, "coordinates": {"latitude": 39.28816, "longitude": -76.6247}, "transactions": ["delivery"], "location": {"address1": "22 S Greene St", "address2": null, "address3": "University Of Maryland Medical Center", "city": "Baltimore", "zip_code": "21201", "country": "US", "state": "MD", "display_address": ["22 S Greene St", "University Of Maryland Medical Center", "Baltimore, MD 21201"]}, "phone": "+14103282227", "display_phone": "(410) 328-2227", "distance": 2728.567096045018}, {"id": "aKI4hqPGrSPAxFOOdBTavw", "alias": "gunther-and-co-baltimore", "name": "Gunther & Co", "image_url": "https://s3-media4.fl.yelpcdn.com/bphoto/woaA738OT6616v3h4Wpxew/o.jpg", "is_closed": false, "url": "https://www.yelp.com/biz/gunther-and-co-baltimore?adjust_creative=bdjMmkM5eh5bUOeX_Vuivw&utm_campaign=yelp_api_v3&utm_medium=api_v3_business_search&utm_source=bdjMmkM5eh5bUOeX_Vuivw", "review_count": 516, "categories": [{"alias": "seafood", "title": "Seafood"}, {"alias": "newamerican", "title": "New American"}], "rating": 4.0, "coordinates": {"latitude": 39.2786859808658, "longitude": -76.5659843542563}, "transactions": ["pickup", "delivery"], "price": "$$", "location": {"address1": "3650 Toone St", "address2": "", "address3": "", "city": "Baltimore", "zip_code": "21224", "country": "US", "state": "MD", "display_address": ["3650 Toone St", "Baltimore, MD 21224"]}, "phone": "+14438696874", "display_phone": "(443) 869-6874", "distance": 5030.419343453345}, {"id": "kvtsf3nzDTPfb7PB3vaKAw", "alias": "punjab-supermarket-and-halal-meat-rosedale", "name": "Punjab Supermarket & Halal Meat", "image_url": "https://s3-media2.fl.yelpcdn.com/bphoto/hzMZUzaZ6U_M6TLwbCZV-Q/o.jpg", "is_closed": false, "url": "https://www.yelp.com/biz/punjab-supermarket-and-halal-meat-rosedale?adjust_creative=bdjMmkM5eh5bUOeX_Vuivw&utm_campaign=yelp_api_v3&utm_medium=api_v3_business_search&utm_source=bdjMmkM5eh5bUOeX_Vuivw", "review_count": 10, "categories": [{"alias": "grocery", "title": "Grocery"}, {"alias": "intlgrocery", "title": "International Grocery"}, {"alias": "meats", "title": "Meat Shops"}], "rating": 3.8, "coordinates": {"latitude": 39.33987257138207, "longitude": -76.48489661434279}, "transactions": ["pickup", "delivery"], "price": "$", "location": {"address1": "8767 Philadelphia Rd", "address2": "Ste J", "address3": "", "city": "Rosedale", "zip_code": "21237", "country": "US", "state": "MD", "display_address": ["8767 Philadelphia Rd", "Ste J", "Rosedale, MD 21237"]}, "phone": "+14105744995", "display_phone": "(410) 574-4995", "distance": 11206.889094116752}, {"id": "qQWnlHZii7i9wZVUq2wVtA", "alias": "chius-sushi-baltimore", "name": "Chiu's Sushi", "image_url": "https://s3-media1.fl.yelpcdn.com/bphoto/a7i8AbF3Ijl62biV9VdcnQ/o.jpg", "is_closed": false, "url": "https://www.yelp.com/biz/chius-sushi-baltimore?adjust_creative=bdjMmkM5eh5bUOeX_Vuivw&utm_campaign=yelp_api_v3&utm_medium=api_v3_business_search&utm_source=bdjMmkM5eh5bUOeX_Vuivw", "review_count": 123, "categories": [{"alias": "sushi", "title": "Sushi Bars"}, {"alias": "japanese", "title": "Japanese"}], "rating": 3.5, "coordinates": {"latitude": 39.2840643570372, "longitude": -76.6003193019677}, "transactions": ["pickup", "delivery"], "price": "$$", "location": {"address1": "608 S Exeter St", "address2": "", "address3": "", "city": "Baltimore", "zip_code": "21202", "country": "US", "state": "MD", "display_address": ["608 S Exeter St", "Baltimore, MD 21202"]}, "phone": "+14107529666", "display_phone": "(410) 752-9666", "distance": 2931.44251096846}, {"id": "_X2uLXxdjNyjDkF71oEIow", "alias": "second-alarm-brewhouse-pasadena", "name": "Second Alarm Brewhouse", "image_url": "https://s3-media4.fl.yelpcdn.com/bphoto/ka3XkfzJIe4ReCpo_cpCmg/o.jpg", "is_closed": false, "url": "https://www.yelp.com/biz/second-alarm-brewhouse-pasadena?adjust_creative=bdjMmkM5eh5bUOeX_Vuivw&utm_campaign=yelp_api_v3&utm_medium=api_v3_business_search&utm_source=bdjMmkM5eh5bUOeX_Vuivw", "review_count": 29, "categories": [{"alias": "coffee", "title": "Coffee & Tea"}, {"alias": "breakfast_brunch", "title": "Breakfast & Brunch"}, {"alias": "bakeries", "title": "Bakeries"}], "rating": 4.8, "coordinates": {"latitude": 39.156397, "longitude": -76.517156}, "transactions": ["pickup", "delivery"], "location": {"address1": "8510 Fort Smallwood Rd", "address2": "", "address3": null, "city": "Pasadena", "zip_code": "21122", "country": "US", "state": "MD", "display_address": ["8510 Fort Smallwood Rd", "Pasadena, MD 21122"]}, "phone": "+14107746028", "display_phone": "(410) 774-6028", "distance": 18754.468650384657}, {"id": "QzCU6V3Iepjhys-qjRUKjQ", "alias": "moolkogi-sushi-catonsville", "name": "Moolkogi Sushi", "image_url": "https://s3-media3.fl.yelpcdn.com/bphoto/itk5lBt7fniVDYjGGu7J2w/o.jpg", "is_closed": false, "url": "https://www.yelp.com/biz/moolkogi-sushi-catonsville?adjust_creative=bdjMmkM5eh5bUOeX_Vuivw&utm_campaign=yelp_api_v3&utm_medium=api_v3_business_search&utm_source=bdjMmkM5eh5bUOeX_Vuivw", "review_count": 27, "categories": [{"alias": "sushi", "title": "Sushi Bars"}], "rating": 4.8, "coordinates": {"latitude": 39.28816, "longitude": -76.76422566934026}, "transactions": ["pickup", "delivery"], "location": {"address1": "6600 Baltimore National Pike", "address2": null, "address3": "Lotte Plaza Market", "city": "Catonsville", "zip_code": "21228", "country": "US", "state": "MD", "display_address": ["6600 Baltimore National Pike", "Lotte Plaza Market", "Catonsville, MD 21228"]}, "phone": "+14107440310", "display_phone": "(410) 744-0310", "distance": 13558.6157369773}, {"id": "Ggs6p6qyVJVN9p3vYCx-xw", "alias": "pho-d-lite-yummy-asian-restaurant-parkville-2", "name": "Pho D\u2019lite-Yummy Asian Restaurant", "image_url": "https://s3-media1.fl.yelpcdn.com/bphoto/gomXnZf5FxPmtUTnBkpk_g/o.jpg", "is_closed": false, "url": "https://www.yelp.com/biz/pho-d-lite-yummy-asian-restaurant-parkville-2?adjust_creative=bdjMmkM5eh5bUOeX_Vuivw&utm_campaign=yelp_api_v3&utm_medium=api_v3_business_search&utm_source=bdjMmkM5eh5bUOeX_Vuivw", "review_count": 148, "categories": [{"alias": "chinese", "title": "Chinese"}, {"alias": "noodles", "title": "Noodles"}, {"alias": "asianfusion", "title": "Asian Fusion"}], "rating": 3.4, "coordinates": {"latitude": 39.40217, "longitude": -76.542174}, "transactions": ["pickup", "delivery"], "price": "$", "location": {"address1": "8926 Waltham Woods Rd", "address2": "", "address3": "", "city": "Parkville", "zip_code": "21234", "country": "US", "state": "MD", "display_address": ["8926 Waltham Woods Rd", "Parkville, MD 21234"]}, "phone": "+14106577711", "display_phone": "(410) 657-7711", "distance": 11820.420046371672}, {"id": "8s9pFQrVGH4nq-rSrqjk2g", "alias": "the-bygone-baltimore", "name": "The Bygone", "image_url": "https://s3-media4.fl.yelpcdn.com/bphoto/RFqirqZP8muZwW1FG9_hNg/o.jpg", "is_closed": false, "url": "https://www.yelp.com/biz/the-bygone-baltimore?adjust_creative=bdjMmkM5eh5bUOeX_Vuivw&utm_campaign=yelp_api_v3&utm_medium=api_v3_business_search&utm_source=bdjMmkM5eh5bUOeX_Vuivw", "review_count": 489, "categories": [{"alias": "tradamerican", "title": "American"}, {"alias": "wine_bars", "title": "Wine Bars"}, {"alias": "cocktailbars", "title": "Cocktail Bars"}], "rating": 3.7, "coordinates": {"latitude": 39.2827292, "longitude": -76.60203888895494}, "transactions": [], "price": "$$$$", "location": {"address1": "400 International Dr", "address2": "Fl 29", "address3": "", "city": "Baltimore", "zip_code": "21202", "country": "US", "state": "MD", "display_address": ["400 International Dr", "Fl 29", "Baltimore, MD 21202"]}, "phone": "+14433438200", "display_phone": "(443) 343-8200", "distance": 3013.8179628435096}, {"id": "ju3glsKb505xSzX9UJtQBQ", "alias": "kpot-korean-bbq-and-hot-pot-catonsville-3", "name": "KPOT Korean BBQ & Hot Pot", "image_url": "https://s3-media2.fl.yelpcdn.com/bphoto/ntTWhOnwbUdmCVGb_lfl2A/o.jpg", "is_closed": false, "url": "https://www.yelp.com/biz/kpot-korean-bbq-and-hot-pot-catonsville-3?adjust_creative=bdjMmkM5eh5bUOeX_Vuivw&utm_campaign=yelp_api_v3&utm_medium=api_v3_business_search&utm_source=bdjMmkM5eh5bUOeX_Vuivw", "review_count": 300, "categories": [{"alias": "korean", "title": "Korean"}, {"alias": "hotpot", "title": "Hot Pot"}, {"alias": "bbq", "title": "Barbeque"}], "rating": 4.4, "coordinates": {"latitude": 39.281951, "longitude": -76.755371}, "transactions": ["pickup", "delivery"], "price": "$$", "location": {"address1": "718 N Rolling Rd", "address2": "", "address3": null, "city": "Catonsville", "zip_code": "21228", "country": "US", "state": "MD", "display_address": ["718 N Rolling Rd", "Catonsville, MD 21228"]}, "phone": "+14438609036", "display_phone": "(443) 860-9036", "distance": 12953.842382696248}, {"id": "F7NJCqejD3eaHJgXAe6kfA", "alias": "first-stop-baltimore", "name": "First Stop", "image_url": "https://s3-media3.fl.yelpcdn.com/bphoto/5jydJL8B455vrtor4RFCug/o.jpg", "is_closed": false, "url": "https://www.yelp.com/biz/first-stop-baltimore?adjust_creative=bdjMmkM5eh5bUOeX_Vuivw&utm_campaign=yelp_api_v3&utm_medium=api_v3_business_search&utm_source=bdjMmkM5eh5bUOeX_Vuivw", "review_count": 1, "categories": [{"alias": "convenience", "title": "Convenience Stores"}], "rating": 5.0, "coordinates": {"latitude": 39.33217101672883, "longitude": -76.52721571408318}, "transactions": [], "price": "$", "location": {"address1": "6098 Radecke Ave", "address2": "", "address3": "", "city": "Baltimore", "zip_code": "21206", "country": "US", "state": "MD", "display_address": ["6098 Radecke Ave", "Baltimore, MD 21206"]}, "phone": "", "display_phone": "", "distance": 7484.457441794439}, {"id": "zHzxdDoMHj_3DfS7OWm4aQ", "alias": "university-market-baltimore", "name": "University Market", "image_url": "https://s3-media1.fl.yelpcdn.com/bphoto/8krk1fjkgS_vj92We64Dzw/o.jpg", "is_closed": false, "url": "https://www.yelp.com/biz/university-market-baltimore?adjust_creative=bdjMmkM5eh5bUOeX_Vuivw&utm_campaign=yelp_api_v3&utm_medium=api_v3_business_search&utm_source=bdjMmkM5eh5bUOeX_Vuivw", "review_count": 42, "categories": [{"alias": "hotdogs", "title": "Fast Food"}, {"alias": "grocery", "title": "Grocery"}], "rating": 3.8, "coordinates": {"latitude": 39.3270588666201, "longitude": -76.6158306598663}, "transactions": ["pickup", "delivery"], "price": "$", "location": {"address1": "3201 Saint Paul St", "address2": "", "address3": "", "city": "Baltimore", "zip_code": "21218", "country": "US", "state": "MD", "display_address": ["3201 Saint Paul St", "Baltimore, MD 21218"]}, "phone": "+14103666630", "display_phone": "(410) 366-6630", "distance": 2124.769600306511}, {"id": "wzoQRTZmqR9N5-8F6rdy1A", "alias": "yuki-sushi-owings-mills", "name": "Yuki Sushi", "image_url": "https://s3-media3.fl.yelpcdn.com/bphoto/HEPapcntLKSktxmc1orY7A/o.jpg", "is_closed": false, "url": "https://www.yelp.com/biz/yuki-sushi-owings-mills?adjust_creative=bdjMmkM5eh5bUOeX_Vuivw&utm_campaign=yelp_api_v3&utm_medium=api_v3_business_search&utm_source=bdjMmkM5eh5bUOeX_Vuivw", "review_count": 118, "categories": [{"alias": "sushi", "title": "Sushi Bars"}, {"alias": "japanese", "title": "Japanese"}], "rating": 3.8, "coordinates": {"latitude": 39.3996284363331, "longitude": -76.7998558007721}, "transactions": ["pickup", "delivery"], "price": "$$", "location": {"address1": "9419 Common Brook Rd", "address2": "Ste 101", "address3": "", "city": "Owings Mills", "zip_code": "21117", "country": "US", "state": "MD", "display_address": ["9419 Common Brook Rd", "Ste 101", "Owings Mills, MD 21117"]}, "phone": "+14109989768", "display_phone": "(410) 998-9768", "distance": 19237.561557542067}, {"id": "To0ZNsuJ--pgPd81aUlQRA", "alias": "edomae-sushi-owings-mills", "name": "EdoMae Sushi", "image_url": "https://s3-media3.fl.yelpcdn.com/bphoto/Nc-L6N5PIPbrRARhzyM-Pg/o.jpg", "is_closed": false, "url": "https://www.yelp.com/biz/edomae-sushi-owings-mills?adjust_creative=bdjMmkM5eh5bUOeX_Vuivw&utm_campaign=yelp_api_v3&utm_medium=api_v3_business_search&utm_source=bdjMmkM5eh5bUOeX_Vuivw", "review_count": 59, "categories": [{"alias": "sushi", "title": "Sushi Bars"}, {"alias": "japanese", "title": "Japanese"}], "rating": 3.9, "coordinates": {"latitude": 39.4269968, "longitude": -76.7802683}, "transactions": ["pickup"], "price": "$$", "location": {"address1": "10995 Owings Mills Blvd", "address2": "Ste 106-1071", "address3": "", "city": "Owings Mills", "zip_code": "21117", "country": "US", "state": "MD", "display_address": ["10995 Owings Mills Blvd", "Ste 106-1071", "Owings Mills, MD 21117"]}, "phone": "+14103566818", "display_phone": "(410) 356-6818", "distance": 19618.108481230272}, {"id": "a8sDQtwANwcwokmFL82LCw", "alias": "p-f-changs-baltimore-3", "name": "P.F. Chang's", "image_url": "https://s3-media3.fl.yelpcdn.com/bphoto/QRtPG4Eqn4lusSyxHD1JTA/o.jpg", "is_closed": false, "url": "https://www.yelp.com/biz/p-f-changs-baltimore-3?adjust_creative=bdjMmkM5eh5bUOeX_Vuivw&utm_campaign=yelp_api_v3&utm_medium=api_v3_business_search&utm_source=bdjMmkM5eh5bUOeX_Vuivw", "review_count": 230, "categories": [{"alias": "chinese", "title": "Chinese"}, {"alias": "asianfusion", "title": "Asian Fusion"}], "rating": 3.0, "coordinates": {"latitude": 39.373503254442575, "longitude": -76.462950548173}, "transactions": ["pickup", "delivery"], "price": "$$", "location": {"address1": "8342 Honeygo Blvd", "address2": "", "address3": "", "city": "Baltimore", "zip_code": "21236", "country": "US", "state": "MD", "display_address": ["8342 Honeygo Blvd", "Baltimore, MD 21236"]}, "phone": "+14109312433", "display_phone": "(410) 931-2433", "distance": 14450.560481613442}, {"id": "bk6n45et1AOZbTcdP6-zOg", "alias": "three-brothers-baltimore-3", "name": "Three Brothers", "image_url": "https://s3-media3.fl.yelpcdn.com/bphoto/rDYx_e8miEn877DtD8H4FA/o.jpg", "is_closed": false, "url": "https://www.yelp.com/biz/three-brothers-baltimore-3?adjust_creative=bdjMmkM5eh5bUOeX_Vuivw&utm_campaign=yelp_api_v3&utm_medium=api_v3_business_search&utm_source=bdjMmkM5eh5bUOeX_Vuivw", "review_count": 4, "categories": [{"alias": "beer_and_wine", "title": "Beer, Wine & Spirits"}, {"alias": "notaries", "title": "Notaries"}, {"alias": "paydayloans", "title": "Check Cashing/Pay-day Loans"}], "rating": 3.0, "coordinates": {"latitude": 39.27984, "longitude": -76.66853}, "transactions": ["pickup", "delivery"], "location": {"address1": "3061 Frederick Ave", "address2": "", "address3": "", "city": "Baltimore", "zip_code": "21223", "country": "US", "state": "MD", "display_address": ["3061 Frederick Ave", "Baltimore, MD 21223"]}, "phone": "+14105669112", "display_phone": "(410) 566-9112", "distance": 6058.794257689314}, {"id": "PBrru8JN-pb_EXkz8c-7-w", "alias": "gw-supermarket-catonsville-2", "name": "GW Supermarket", "image_url": "https://s3-media3.fl.yelpcdn.com/bphoto/jZvDvF9ckNxxhAnoR3_arg/o.jpg", "is_closed": false, "url": "https://www.yelp.com/biz/gw-supermarket-catonsville-2?adjust_creative=bdjMmkM5eh5bUOeX_Vuivw&utm_campaign=yelp_api_v3&utm_medium=api_v3_business_search&utm_source=bdjMmkM5eh5bUOeX_Vuivw", "review_count": 84, "categories": [{"alias": "intlgrocery", "title": "International Grocery"}], "rating": 3.6, "coordinates": {"latitude": 39.291303469159104, "longitude": -76.72222920208034}, "transactions": [], "price": "$$", "location": {"address1": "5510 Baltimore National Pike", "address2": "", "address3": "", "city": "Catonsville", "zip_code": "21207", "country": "US", "state": "MD", "display_address": ["5510 Baltimore National Pike", "Catonsville, MD 21207"]}, "phone": "+14107888888", "display_phone": "(410) 788-8888", "distance": 9942.753897158613}, {"id": "d2iNXqa2N-L_-9ogp9a0GQ", "alias": "daily-sushi-parkville-2", "name": "Daily Sushi", "image_url": "https://s3-media1.fl.yelpcdn.com/bphoto/MMzjDgCebKWPuxM1c8TU9A/o.jpg", "is_closed": false, "url": "https://www.yelp.com/biz/daily-sushi-parkville-2?adjust_creative=bdjMmkM5eh5bUOeX_Vuivw&utm_campaign=yelp_api_v3&utm_medium=api_v3_business_search&utm_source=bdjMmkM5eh5bUOeX_Vuivw", "review_count": 129, "categories": [{"alias": "sushi", "title": "Sushi Bars"}, {"alias": "seafood", "title": "Seafood"}, {"alias": "juicebars", "title": "Juice Bars & Smoothies"}], "rating": 4.4, "coordinates": {"latitude": 39.400233369377, "longitude": -76.5524580027268}, "transactions": ["pickup", "delivery"], "price": "$", "location": {"address1": "1842 E Joppa Rd", "address2": "", "address3": null, "city": "Parkville", "zip_code": "21234", "country": "US", "state": "MD", "display_address": ["1842 E Joppa Rd", "Parkville, MD 21234"]}, "phone": "+14106687700", "display_phone": "(410) 668-7700", "distance": 11222.140796085398}, {"id": "fiOIYj3pA0Wi4Bn2B9ZeGQ", "alias": "taco-love-grill-white-marsh", "name": "Taco Love Grill", "image_url": "https://s3-media3.fl.yelpcdn.com/bphoto/fqSrG9sQ1bHZmuo8mHTaMw/o.jpg", "is_closed": false, "url": "https://www.yelp.com/biz/taco-love-grill-white-marsh?adjust_creative=bdjMmkM5eh5bUOeX_Vuivw&utm_campaign=yelp_api_v3&utm_medium=api_v3_business_search&utm_source=bdjMmkM5eh5bUOeX_Vuivw", "review_count": 467, "categories": [{"alias": "mexican", "title": "Mexican"}, {"alias": "bars", "title": "Bars"}], "rating": 4.2, "coordinates": {"latitude": 39.40707, "longitude": -76.41371}, "transactions": ["pickup"], "price": "$$", "location": {"address1": "11550 Philadelphia Rd", "address2": "Ste 110", "address3": "", "city": "White Marsh", "zip_code": "21162", "country": "US", "state": "MD", "display_address": ["11550 Philadelphia Rd", "Ste 110", "White Marsh, MD 21162"]}, "phone": "+14102560406", "display_phone": "(410) 256-0406", "distance": 19967.45680745258}, {"id": "231I9KI9iyL14G7RIwXx1w", "alias": "hot-pot-king-catonsville", "name": "Hot Pot King", "image_url": "https://s3-media2.fl.yelpcdn.com/bphoto/AgLLHqj1DH2ak32DVkX7SQ/o.jpg", "is_closed": false, "url": "https://www.yelp.com/biz/hot-pot-king-catonsville?adjust_creative=bdjMmkM5eh5bUOeX_Vuivw&utm_campaign=yelp_api_v3&utm_medium=api_v3_business_search&utm_source=bdjMmkM5eh5bUOeX_Vuivw", "review_count": 97, "categories": [{"alias": "hotpot", "title": "Hot Pot"}, {"alias": "chinese", "title": "Chinese"}, {"alias": "seafood", "title": "Seafood"}], "rating": 4.4, "coordinates": {"latitude": 39.286987, "longitude": -76.761971}, "transactions": ["pickup", "delivery"], "location": {"address1": "6510 Baltimore National Pike", "address2": "Ste 5.2", "address3": "The Hub Asian Food Hall", "city": "Catonsville", "zip_code": "21228", "country": "US", "state": "MD", "display_address": ["6510 Baltimore National Pike", "Ste 5.2", "The Hub Asian Food Hall", "Catonsville, MD 21228"]}, "phone": "+16678025177", "display_phone": "(667) 802-5177", "distance": 13392.136503595075}, {"id": "IEtdCTQkVyDKvmO4E2jM0A", "alias": "aloha-sushi-baltimore", "name": "Aloha Sushi", "image_url": "https://s3-media2.fl.yelpcdn.com/bphoto/f2NsyLARqdG8FGJNEXJQGw/o.jpg", "is_closed": false, "url": "https://www.yelp.com/biz/aloha-sushi-baltimore?adjust_creative=bdjMmkM5eh5bUOeX_Vuivw&utm_campaign=yelp_api_v3&utm_medium=api_v3_business_search&utm_source=bdjMmkM5eh5bUOeX_Vuivw", "review_count": 248, "categories": [{"alias": "sushi", "title": "Sushi Bars"}], "rating": 3.6, "coordinates": {"latitude": 39.3040838774023, "longitude": -76.61625481105142}, "transactions": ["pickup", "delivery"], "price": "$$", "location": {"address1": "1218 N Charles St", "address2": "", "address3": "", "city": "Baltimore", "zip_code": "21201", "country": "US", "state": "MD", "display_address": ["1218 N Charles St", "Baltimore, MD 21201"]}, "phone": "+14437598531", "display_phone": "(443) 759-8531", "distance": 848.550870838363}, {"id": "90faWpbZLWg8LJ9fU6yViQ", "alias": "sushi-call-elkridge", "name": "Sushi Call", "image_url": "https://s3-media4.fl.yelpcdn.com/bphoto/zvk4Eq8aNp0hsMk5ClMOvA/o.jpg", "is_closed": false, "url": "https://www.yelp.com/biz/sushi-call-elkridge?adjust_creative=bdjMmkM5eh5bUOeX_Vuivw&utm_campaign=yelp_api_v3&utm_medium=api_v3_business_search&utm_source=bdjMmkM5eh5bUOeX_Vuivw", "review_count": 98, "categories": [{"alias": "sushi", "title": "Sushi Bars"}], "rating": 4.4, "coordinates": {"latitude": 39.20774831375193, "longitude": -76.72916160367109}, "transactions": ["pickup", "delivery"], "location": {"address1": "7260 Montgomery Rd", "address2": "Ste F-G", "address3": "", "city": "Elkridge", "zip_code": "21075", "country": "US", "state": "MD", "display_address": ["7260 Montgomery Rd", "Ste F-G", "Elkridge, MD 21075"]}, "phone": "+14102203471", "display_phone": "(410) 220-3471", "distance": 15311.363974814836}, {"id": "u-jpS4DQaxATuBH6A15zHw", "alias": "poke-bowl-baltimore", "name": "Poke Bowl", "image_url": "https://s3-media1.fl.yelpcdn.com/bphoto/haqj548rsEfJc3ybz-_nfw/o.jpg", "is_closed": false, "url": "https://www.yelp.com/biz/poke-bowl-baltimore?adjust_creative=bdjMmkM5eh5bUOeX_Vuivw&utm_campaign=yelp_api_v3&utm_medium=api_v3_business_search&utm_source=bdjMmkM5eh5bUOeX_Vuivw", "review_count": 50, "categories": [{"alias": "poke", "title": "Poke"}, {"alias": "hawaiian", "title": "Hawaiian"}], "rating": 4.2, "coordinates": {"latitude": 39.2772301073056, "longitude": -76.6126301139593}, "transactions": ["pickup", "delivery"], "location": {"address1": "1040 Light St", "address2": "", "address3": null, "city": "Baltimore", "zip_code": "21230", "country": "US", "state": "MD", "display_address": ["1040 Light St", "Baltimore, MD 21230"]}, "phone": "+14437596229", "display_phone": "(443) 759-6229", "distance": 3577.8403843271285}, {"id": "f4KcFcLyummNrtgSiSOT2Q", "alias": "vaccaros-italian-pastry-shop-baltimore-4", "name": "Vaccaro's Italian Pastry Shop", "image_url": "https://s3-media2.fl.yelpcdn.com/bphoto/TvUWaFYJ_7nTpZoorOwcXA/o.jpg", "is_closed": false, "url": "https://www.yelp.com/biz/vaccaros-italian-pastry-shop-baltimore-4?adjust_creative=bdjMmkM5eh5bUOeX_Vuivw&utm_campaign=yelp_api_v3&utm_medium=api_v3_business_search&utm_source=bdjMmkM5eh5bUOeX_Vuivw", "review_count": 944, "categories": [{"alias": "desserts", "title": "Desserts"}, {"alias": "italian", "title": "Italian"}, {"alias": "gelato", "title": "Gelato"}], "rating": 3.7, "coordinates": {"latitude": 39.2867851257324, "longitude": -76.602897644043}, "transactions": ["pickup"], "price": "$$", "location": {"address1": "222 Albemarle St", "address2": "", "address3": "", "city": "Baltimore", "zip_code": "21202", "country": "US", "state": "MD", "display_address": ["222 Albemarle St", "Baltimore, MD 21202"]}, "phone": "+14106854905", "display_phone": "(410) 685-4905", "distance": 2557.790350028334}, {"id": "2lvD95yjsTPp7x_KdBWtfg", "alias": "nandos-peri-peri-hanover-3", "name": "Nando's Peri-Peri", "image_url": "https://s3-media1.fl.yelpcdn.com/bphoto/UBBPqXQC23Wtaq6VqfyFVg/o.jpg", "is_closed": false, "url": "https://www.yelp.com/biz/nandos-peri-peri-hanover-3?adjust_creative=bdjMmkM5eh5bUOeX_Vuivw&utm_campaign=yelp_api_v3&utm_medium=api_v3_business_search&utm_source=bdjMmkM5eh5bUOeX_Vuivw", "review_count": 301, "categories": [{"alias": "portuguese", "title": "Portuguese"}, {"alias": "southafrican", "title": "South African"}, {"alias": "chickenshop", "title": "Chicken Shop"}], "rating": 3.6, "coordinates": {"latitude": 39.15713213, "longitude": -76.72528131}, "transactions": ["delivery", "pickup"], "price": "$$", "location": {"address1": "7000 Arundel Mills Circle 229", "address2": "Ste 229", "address3": "", "city": "Hanover", "zip_code": "21076", "country": "US", "state": "MD", "display_address": ["7000 Arundel Mills Circle 229", "Ste 229", "Hanover, MD 21076"]}, "phone": "+14432966415", "display_phone": "(443) 296-6415", "distance": 19659.096113358573}, {"id": "UpcZVxNq8yJ4XzOT2vbSVw", "alias": "benihana-baltimore-baltimore", "name": "Benihana - Baltimore", "image_url": "", "is_closed": false, "url": "https://www.yelp.com/biz/benihana-baltimore-baltimore?adjust_creative=bdjMmkM5eh5bUOeX_Vuivw&utm_campaign=yelp_api_v3&utm_medium=api_v3_business_search&utm_source=bdjMmkM5eh5bUOeX_Vuivw", "review_count": 3, "categories": [{"alias": "japanese", "title": "Japanese"}, {"alias": "fooddeliveryservices", "title": "Food Delivery Services"}], "rating": 1.3, "coordinates": {"latitude": 39.28251, "longitude": -76.59747}, "transactions": ["delivery", "pickup"], "location": {"address1": "1390 Lancaster St", "address2": "", "address3": null, "city": "Baltimore", "zip_code": "21231", "country": "US", "state": "MD", "display_address": ["1390 Lancaster St", "Baltimore, MD 21231"]}, "phone": "+14438734001", "display_phone": "(443) 873-4001", "distance": 3143.0077026755794}, {"id": "n3bY9l_uDccV9X2TxH4rrg", "alias": "baltimore-seafood-baltimore", "name": "Baltimore Seafood", "image_url": "https://s3-media2.fl.yelpcdn.com/bphoto/-lBe6Pp1I6DqQ2_B9OA7fw/o.jpg", "is_closed": false, "url": "https://www.yelp.com/biz/baltimore-seafood-baltimore?adjust_creative=bdjMmkM5eh5bUOeX_Vuivw&utm_campaign=yelp_api_v3&utm_medium=api_v3_business_search&utm_source=bdjMmkM5eh5bUOeX_Vuivw", "review_count": 283, "categories": [{"alias": "seafood", "title": "Seafood"}], "rating": 4.2, "coordinates": {"latitude": 39.28284, "longitude": -76.58375}, "transactions": ["delivery", "pickup"], "price": "$$", "location": {"address1": "2324 E Boston Sreet", "address2": null, "address3": "", "city": "Baltimore", "zip_code": "21224", "country": "US", "state": "MD", "display_address": ["2324 E Boston Sreet", "Baltimore, MD 21224"]}, "phone": "+14106245166", "display_phone": "(410) 624-5166", "distance": 3664.225596685618}, {"id": "efgLk3fOWkuBIs8Jihcyfg", "alias": "mr-tepaches-baltimore", "name": "Mr Tepaches", "image_url": "https://s3-media1.fl.yelpcdn.com/bphoto/AWay2iDjgfKfF92yJ-P8hw/o.jpg", "is_closed": false, "url": "https://www.yelp.com/biz/mr-tepaches-baltimore?adjust_creative=bdjMmkM5eh5bUOeX_Vuivw&utm_campaign=yelp_api_v3&utm_medium=api_v3_business_search&utm_source=bdjMmkM5eh5bUOeX_Vuivw", "review_count": 16, "categories": [{"alias": "tacos", "title": "Tacos"}, {"alias": "bars", "title": "Bars"}, {"alias": "newmexican", "title": "New Mexican Cuisine"}], "rating": 3.8, "coordinates": {"latitude": 39.28386135157747, "longitude": -76.5898042}, "transactions": ["delivery", "pickup"], "location": {"address1": "1900 Aliceanna St", "address2": null, "address3": "", "city": "Baltimore", "zip_code": "21231", "country": "US", "state": "MD", "display_address": ["1900 Aliceanna St", "Baltimore, MD 21231"]}, "phone": "+14103201126", "display_phone": "(410) 320-1126", "distance": 3276.012906571148}, {"id": "AB7e5eBcBDKHTN7bBknHgA", "alias": "streets-market-and-cafe-baltimore", "name": "Streets Market & Cafe", "image_url": "https://s3-media1.fl.yelpcdn.com/bphoto/7VvLjb0nTBNYSD3V_VqXGg/o.jpg", "is_closed": false, "url": "https://www.yelp.com/biz/streets-market-and-cafe-baltimore?adjust_creative=bdjMmkM5eh5bUOeX_Vuivw&utm_campaign=yelp_api_v3&utm_medium=api_v3_business_search&utm_source=bdjMmkM5eh5bUOeX_Vuivw", "review_count": 79, "categories": [{"alias": "grocery", "title": "Grocery"}, {"alias": "markets", "title": "Fruits & Veggies"}], "rating": 3.8, "coordinates": {"latitude": 39.2920785796041, "longitude": -76.6154222935438}, "transactions": ["delivery"], "price": "$$", "location": {"address1": "222 N Charles St", "address2": "", "address3": "", "city": "Baltimore", "zip_code": "21201", "country": "US", "state": "MD", "display_address": ["222 N Charles St", "Baltimore, MD 21201"]}, "phone": "+16679303405", "display_phone": "(667) 930-3405", "distance": 1990.6653843589754}, {"id": "EbnYaqji7tgWfbE-pGh9Pw", "alias": "hard-rock-cafe-baltimore-6", "name": "Hard Rock Cafe", "image_url": "https://s3-media1.fl.yelpcdn.com/bphoto/e7iR37UjU5iHy0JnQS6MAQ/o.jpg", "is_closed": false, "url": "https://www.yelp.com/biz/hard-rock-cafe-baltimore-6?adjust_creative=bdjMmkM5eh5bUOeX_Vuivw&utm_campaign=yelp_api_v3&utm_medium=api_v3_business_search&utm_source=bdjMmkM5eh5bUOeX_Vuivw", "review_count": 482, "categories": [{"alias": "burgers", "title": "Burgers"}, {"alias": "tradamerican", "title": "American"}], "rating": 2.7, "coordinates": {"latitude": 39.28613, "longitude": -76.60721}, "transactions": ["delivery"], "price": "$$", "location": {"address1": "601 E Pratt St", "address2": "", "address3": "", "city": "Baltimore", "zip_code": "21202", "country": "US", "state": "MD", "display_address": ["601 E Pratt St", "Baltimore, MD 21202"]}, "phone": "+14103477625", "display_phone": "(410) 347-7625", "distance": 2554.056938763476}, {"id": "XAQo2UwoVg1sjDq108ypeQ", "alias": "7-eleven-baltimore-31", "name": "7-Eleven", "image_url": "https://s3-media4.fl.yelpcdn.com/bphoto/K1dN88zWD3SyrILdo4q4Fg/o.jpg", "is_closed": false, "url": "https://www.yelp.com/biz/7-eleven-baltimore-31?adjust_creative=bdjMmkM5eh5bUOeX_Vuivw&utm_campaign=yelp_api_v3&utm_medium=api_v3_business_search&utm_source=bdjMmkM5eh5bUOeX_Vuivw", "review_count": 7, "categories": [{"alias": "convenience", "title": "Convenience Stores"}, {"alias": "coffee", "title": "Coffee & Tea"}], "rating": 3.6, "coordinates": {"latitude": 39.2812229, "longitude": -76.5941902}, "transactions": ["delivery", "pickup"], "price": "$", "location": {"address1": "1615 Thames St", "address2": "", "address3": "", "city": "Baltimore", "zip_code": "21231", "country": "US", "state": "MD", "display_address": ["1615 Thames St", "Baltimore, MD 21231"]}, "phone": "+14105221587", "display_phone": "(410) 522-1587", "distance": 3371.9834925867003}, {"id": "tmrz9xF3wKGD_rclqzLQSA", "alias": "mt-vernon-supermarket-baltimore", "name": "Mt. Vernon Supermarket", "image_url": "https://s3-media3.fl.yelpcdn.com/bphoto/P54iNqHfnelqbvm0HJD1Gg/o.jpg", "is_closed": false, "url": "https://www.yelp.com/biz/mt-vernon-supermarket-baltimore?adjust_creative=bdjMmkM5eh5bUOeX_Vuivw&utm_campaign=yelp_api_v3&utm_medium=api_v3_business_search&utm_source=bdjMmkM5eh5bUOeX_Vuivw", "review_count": 24, "categories": [{"alias": "grocery", "title": "Grocery"}, {"alias": "beer_and_wine", "title": "Beer, Wine & Spirits"}], "rating": 4.0, "coordinates": {"latitude": 39.2991113, "longitude": -76.6156168}, "transactions": [], "price": "$$", "location": {"address1": "815 N Charles St", "address2": "", "address3": "", "city": "Baltimore", "zip_code": "21201", "country": "US", "state": "MD", "display_address": ["815 N Charles St", "Baltimore, MD 21201"]}, "phone": "+14107272595", "display_phone": "(410) 727-2595", "distance": 1265.0476574733711}, {"id": "QaqDpaJLb8WEFYlDLskofQ", "alias": "sushi-hana-towson-2", "name": "Sushi Hana", "image_url": "https://s3-media3.fl.yelpcdn.com/bphoto/bTgG4Sx1M69x-aPv1UNoHg/o.jpg", "is_closed": false, "url": "https://www.yelp.com/biz/sushi-hana-towson-2?adjust_creative=bdjMmkM5eh5bUOeX_Vuivw&utm_campaign=yelp_api_v3&utm_medium=api_v3_business_search&utm_source=bdjMmkM5eh5bUOeX_Vuivw", "review_count": 286, "categories": [{"alias": "japanese", "title": "Japanese"}, {"alias": "sushi", "title": "Sushi Bars"}, {"alias": "newamerican", "title": "New American"}], "rating": 3.2, "coordinates": {"latitude": 39.4005157553839, "longitude": -76.6014930490848}, "transactions": ["delivery", "pickup", "restaurant_reservation"], "price": "$$", "location": {"address1": "6 E Pennsylvania Ave", "address2": "", "address3": "", "city": "Towson", "zip_code": "21286", "country": "US", "state": "MD", "display_address": ["6 E Pennsylvania Ave", "Towson, MD 21286"]}, "phone": "+14108230372", "display_phone": "(410) 823-0372", "distance": 10164.98014015221}, {"id": "BtSzrBShtJldXdqc3SOggw", "alias": "san-pablo-street-tacos-baltimore", "name": "San Pablo Street Tacos", "image_url": "https://s3-media4.fl.yelpcdn.com/bphoto/OMpeCqfINYeO5G2kw-BNyQ/o.jpg", "is_closed": false, "url": "https://www.yelp.com/biz/san-pablo-street-tacos-baltimore?adjust_creative=bdjMmkM5eh5bUOeX_Vuivw&utm_campaign=yelp_api_v3&utm_medium=api_v3_business_search&utm_source=bdjMmkM5eh5bUOeX_Vuivw", "review_count": 110, "categories": [{"alias": "tacos", "title": "Tacos"}], "rating": 3.6, "coordinates": {"latitude": 39.298802, "longitude": -76.614407}, "transactions": ["delivery", "pickup"], "price": "$$", "location": {"address1": "800 St Paul St", "address2": null, "address3": "", "city": "Baltimore", "zip_code": "21202", "country": "US", "state": "MD", "display_address": ["800 St Paul St", "Baltimore, MD 21202"]}, "phone": "+14438692166", "display_phone": "(443) 869-2166", "distance": 1253.940519170237}, {"id": "WjR1VTBxjiMuwDDienxtJg", "alias": "rubens-brooklyn-brooklyn", "name": "Ruben's - Brooklyn", "image_url": "https://s3-media2.fl.yelpcdn.com/bphoto/VB9gxBzNZS90uMogplsvFQ/o.jpg", "is_closed": false, "url": "https://www.yelp.com/biz/rubens-brooklyn-brooklyn?adjust_creative=bdjMmkM5eh5bUOeX_Vuivw&utm_campaign=yelp_api_v3&utm_medium=api_v3_business_search&utm_source=bdjMmkM5eh5bUOeX_Vuivw", "review_count": 9, "categories": [{"alias": "tacos", "title": "Tacos"}], "rating": 3.3, "coordinates": {"latitude": 39.22006, "longitude": -76.61437}, "transactions": ["delivery", "pickup"], "location": {"address1": "5502 Governor Ritchie Hwy", "address2": null, "address3": "", "city": "Brooklyn", "zip_code": "21225", "country": "US", "state": "MD", "display_address": ["5502 Governor Ritchie Hwy", "Brooklyn, MD 21225"]}, "phone": "+16672565024", "display_phone": "(667) 256-5024", "distance": 9930.615461718824}, {"id": "paQVirjeB1832ofMuGhupQ", "alias": "7-eleven-nottingham-5", "name": "7-Eleven", "image_url": "https://s3-media1.fl.yelpcdn.com/bphoto/Fyl7xyBToY0sb2LN0Tm9yQ/o.jpg", "is_closed": false, "url": "https://www.yelp.com/biz/7-eleven-nottingham-5?adjust_creative=bdjMmkM5eh5bUOeX_Vuivw&utm_campaign=yelp_api_v3&utm_medium=api_v3_business_search&utm_source=bdjMmkM5eh5bUOeX_Vuivw", "review_count": 5, "categories": [{"alias": "convenience", "title": "Convenience Stores"}, {"alias": "servicestations", "title": "Gas Stations"}, {"alias": "coffee", "title": "Coffee & Tea"}], "rating": 2.2, "coordinates": {"latitude": 39.3759204461776, "longitude": -76.4717120585107}, "transactions": ["delivery", "pickup"], "price": "$", "location": {"address1": "8235 Perry Hall Blvd", "address2": "", "address3": "", "city": "Nottingham", "zip_code": "21236", "country": "US", "state": "MD", "display_address": ["8235 Perry Hall Blvd", "Nottingham, MD 21236"]}, "phone": "+14109313988", "display_phone": "(410) 931-3988", "distance": 13941.337351099255}, {"id": "fF5OkdRo_s18MjCstfAhkg", "alias": "7-eleven-baltimore-25", "name": "7-Eleven", "image_url": "https://s3-media3.fl.yelpcdn.com/bphoto/6hHosuK1W9vN2FcTYWELzw/o.jpg", "is_closed": false, "url": "https://www.yelp.com/biz/7-eleven-baltimore-25?adjust_creative=bdjMmkM5eh5bUOeX_Vuivw&utm_campaign=yelp_api_v3&utm_medium=api_v3_business_search&utm_source=bdjMmkM5eh5bUOeX_Vuivw", "review_count": 4, "categories": [{"alias": "convenience", "title": "Convenience Stores"}, {"alias": "coffee", "title": "Coffee & Tea"}], "rating": 1.8, "coordinates": {"latitude": 39.2881073, "longitude": -76.5392656624317}, "transactions": ["delivery", "pickup"], "price": "$", "location": {"address1": "6314 Eastern Ave", "address2": null, "address3": null, "city": "Baltimore", "zip_code": "21224", "country": "US", "state": "MD", "display_address": ["6314 Eastern Ave", "Baltimore, MD 21224"]}, "phone": "+14106317157", "display_phone": "(410) 631-7157", "distance": 6449.268556976785}, {"id": "ntFlRarrkWxMHY8Hwguy4w", "alias": "banditos-tacos-and-tequila-towson", "name": "Banditos Tacos & Tequila", "image_url": "https://s3-media1.fl.yelpcdn.com/bphoto/DWIyr1cZK8mVtEeAShcqTQ/o.jpg", "is_closed": false, "url": "https://www.yelp.com/biz/banditos-tacos-and-tequila-towson?adjust_creative=bdjMmkM5eh5bUOeX_Vuivw&utm_campaign=yelp_api_v3&utm_medium=api_v3_business_search&utm_source=bdjMmkM5eh5bUOeX_Vuivw", "review_count": 58, "categories": [{"alias": "tacos", "title": "Tacos"}, {"alias": "breakfast_brunch", "title": "Breakfast & Brunch"}, {"alias": "cocktailbars", "title": "Cocktail Bars"}], "rating": 4.0, "coordinates": {"latitude": 39.40160359686233, "longitude": -76.60439280269708}, "transactions": ["delivery", "pickup"], "price": "$$", "location": {"address1": "31 Allegheny Ave", "address2": "", "address3": null, "city": "Towson", "zip_code": "21204", "country": "US", "state": "MD", "display_address": ["31 Allegheny Ave", "Towson, MD 21204"]}, "phone": "+14432752072", "display_phone": "(443) 275-2072", "distance": 10272.985303922502}, {"id": "4MB9emhBAHbGw1e88ode6g", "alias": "uni-sushi-baltimore", "name": "UNI Sushi", "image_url": "https://s3-media2.fl.yelpcdn.com/bphoto/QxqhhfkTqkKtKpNkzZbD-A/o.jpg", "is_closed": false, "url": "https://www.yelp.com/biz/uni-sushi-baltimore?adjust_creative=bdjMmkM5eh5bUOeX_Vuivw&utm_campaign=yelp_api_v3&utm_medium=api_v3_business_search&utm_source=bdjMmkM5eh5bUOeX_Vuivw", "review_count": 15, "categories": [{"alias": "sushi", "title": "Sushi Bars"}], "rating": 3.3, "coordinates": {"latitude": 39.384671, "longitude": -76.689211}, "transactions": [], "location": {"address1": "2592 Quarry Lake Dr", "address2": null, "address3": "", "city": "Baltimore", "zip_code": "21209", "country": "US", "state": "MD", "display_address": ["2592 Quarry Lake Dr", "Baltimore, MD 21209"]}, "phone": "+14108441994", "display_phone": "(410) 844-1994", "distance": 10849.101038118115}, {"id": "qdsEx3i6DYdsclIo9kyG0w", "alias": "neighbors-kitchen-baltimore", "name": "Neighbor's Kitchen", "image_url": "", "is_closed": false, "url": "https://www.yelp.com/biz/neighbors-kitchen-baltimore?adjust_creative=bdjMmkM5eh5bUOeX_Vuivw&utm_campaign=yelp_api_v3&utm_medium=api_v3_business_search&utm_source=bdjMmkM5eh5bUOeX_Vuivw", "review_count": 17, "categories": [{"alias": "chinese", "title": "Chinese"}], "rating": 3.4, "coordinates": {"latitude": 39.3516719, "longitude": -76.5339231}, "transactions": ["delivery", "pickup"], "price": "$$", "location": {"address1": "6329 Belair Rd", "address2": "", "address3": "", "city": "Baltimore", "zip_code": "21206", "country": "US", "state": "MD", "display_address": ["6329 Belair Rd", "Baltimore, MD 21206"]}, "phone": "+14104267775", "display_phone": "(410) 426-7775", "distance": 8010.446699456244}, {"id": "iEDqWhPOHQmWkrrKSBlA5w", "alias": "the-charmery-baltimore", "name": "The Charmery", "image_url": "https://s3-media3.fl.yelpcdn.com/bphoto/lsUueE1hRUxpHL80v9oXAw/o.jpg", "is_closed": false, "url": "https://www.yelp.com/biz/the-charmery-baltimore?adjust_creative=bdjMmkM5eh5bUOeX_Vuivw&utm_campaign=yelp_api_v3&utm_medium=api_v3_business_search&utm_source=bdjMmkM5eh5bUOeX_Vuivw", "review_count": 577, "categories": [{"alias": "icecream", "title": "Ice Cream & Frozen Yogurt"}], "rating": 4.5, "coordinates": {"latitude": 39.331126, "longitude": -76.6295599}, "transactions": ["delivery", "pickup"], "price": "$$", "location": {"address1": "801 W 36th St", "address2": null, "address3": "", "city": "Baltimore", "zip_code": "21211", "country": "US", "state": "MD", "display_address": ["801 W 36th St", "Baltimore, MD 21211"]}, "phone": "+14108140493", "display_phone": "(410) 814-0493", "distance": 3002.248812025969}, {"id": "3g6_IbXbftRzNCgw-pnw_w", "alias": "7-eleven-baltimore-21", "name": "7-Eleven", "image_url": "https://s3-media4.fl.yelpcdn.com/bphoto/ySHM6KnUves1_k7MHZQihA/o.jpg", "is_closed": false, "url": "https://www.yelp.com/biz/7-eleven-baltimore-21?adjust_creative=bdjMmkM5eh5bUOeX_Vuivw&utm_campaign=yelp_api_v3&utm_medium=api_v3_business_search&utm_source=bdjMmkM5eh5bUOeX_Vuivw", "review_count": 3, "categories": [{"alias": "convenience", "title": "Convenience Stores"}, {"alias": "coffee", "title": "Coffee & Tea"}], "rating": 2.0, "coordinates": {"latitude": 39.3026237100747, "longitude": -76.6192160454011}, "transactions": ["delivery", "pickup"], "price": "$", "location": {"address1": "1020 Park Ave", "address2": "", "address3": null, "city": "Baltimore", "zip_code": "21201", "country": "US", "state": "MD", "display_address": ["1020 Park Ave", "Baltimore, MD 21201"]}, "phone": "+14102447399", "display_phone": "(410) 244-7399", "distance": 1146.9600656479565}, {"id": "W4QQumtq4SQ0nTCm42K0lA", "alias": "7-eleven-baltimore-19", "name": "7-Eleven", "image_url": "https://s3-media2.fl.yelpcdn.com/bphoto/DRB-d2FnwNbWwYdWNYv68Q/o.jpg", "is_closed": false, "url": "https://www.yelp.com/biz/7-eleven-baltimore-19?adjust_creative=bdjMmkM5eh5bUOeX_Vuivw&utm_campaign=yelp_api_v3&utm_medium=api_v3_business_search&utm_source=bdjMmkM5eh5bUOeX_Vuivw", "review_count": 2, "categories": [{"alias": "convenience", "title": "Convenience Stores"}, {"alias": "coffee", "title": "Coffee & Tea"}], "rating": 1.0, "coordinates": {"latitude": 39.34463, "longitude": -76.64035}, "transactions": ["delivery"], "price": "$", "location": {"address1": "4535 Falls Rd", "address2": null, "address3": null, "city": "Baltimore", "zip_code": "21209", "country": "US", "state": "MD", "display_address": ["4535 Falls Rd", "Baltimore, MD 21209"]}, "phone": "+14102355065", "display_phone": "(410) 235-5065", "distance": 4750.851307026498}, {"id": "yatcMuJfEMjFKPnyaO334A", "alias": "7-eleven-owings-mills-2", "name": "7-Eleven", "image_url": "https://s3-media1.fl.yelpcdn.com/bphoto/GkhdrLZceWEuHJUZIqUBRQ/o.jpg", "is_closed": false, "url": "https://www.yelp.com/biz/7-eleven-owings-mills-2?adjust_creative=bdjMmkM5eh5bUOeX_Vuivw&utm_campaign=yelp_api_v3&utm_medium=api_v3_business_search&utm_source=bdjMmkM5eh5bUOeX_Vuivw", "review_count": 9, "categories": [{"alias": "convenience", "title": "Convenience Stores"}, {"alias": "servicestations", "title": "Gas Stations"}, {"alias": "coffee", "title": "Coffee & Tea"}], "rating": 2.6, "coordinates": {"latitude": 39.4333334, "longitude": -76.779826}, "transactions": ["delivery", "pickup"], "price": "$", "location": {"address1": "3731 Crondall Ln", "address2": "", "address3": "", "city": "Owings Mills", "zip_code": "21117", "country": "US", "state": "MD", "display_address": ["3731 Crondall Ln", "Owings Mills, MD 21117"]}, "phone": "+14433949216", "display_phone": "(443) 394-9216", "distance": 20143.998960920766}, {"id": "1VrRAVZopCjmzR7pqzL_8g", "alias": "7-eleven-baltimore-92", "name": "7-Eleven", "image_url": "https://s3-media3.fl.yelpcdn.com/bphoto/iYuLtsL7_ifFfu0Z8MuhKg/o.jpg", "is_closed": false, "url": "https://www.yelp.com/biz/7-eleven-baltimore-92?adjust_creative=bdjMmkM5eh5bUOeX_Vuivw&utm_campaign=yelp_api_v3&utm_medium=api_v3_business_search&utm_source=bdjMmkM5eh5bUOeX_Vuivw", "review_count": 1, "categories": [{"alias": "convenience", "title": "Convenience Stores"}, {"alias": "coffee", "title": "Coffee & Tea"}], "rating": 2.0, "coordinates": {"latitude": 39.3197489344055, "longitude": -76.6556614637374}, "transactions": ["delivery", "pickup"], "price": "$", "location": {"address1": "2500 Liberty Heights Ave", "address2": null, "address3": null, "city": "Baltimore", "zip_code": "21215", "country": "US", "state": "MD", "display_address": ["2500 Liberty Heights Ave", "Baltimore, MD 21215"]}, "phone": "+14105231797", "display_phone": "(410) 523-1797", "distance": 4176.187369646671}, {"id": "s6yQZf2KTcoFI_eZvZonLw", "alias": "7-eleven-baltimore-11", "name": "7-Eleven", "image_url": "https://s3-media2.fl.yelpcdn.com/bphoto/Xp_7zJlduZK3JZNdgrHnDw/o.jpg", "is_closed": false, "url": "https://www.yelp.com/biz/7-eleven-baltimore-11?adjust_creative=bdjMmkM5eh5bUOeX_Vuivw&utm_campaign=yelp_api_v3&utm_medium=api_v3_business_search&utm_source=bdjMmkM5eh5bUOeX_Vuivw", "review_count": 2, "categories": [{"alias": "convenience", "title": "Convenience Stores"}, {"alias": "coffee", "title": "Coffee & Tea"}], "rating": 2.5, "coordinates": {"latitude": 39.3212286, "longitude": -76.620874}, "transactions": ["delivery", "pickup"], "price": "$", "location": {"address1": "211 West 28 St", "address2": "", "address3": "", "city": "Baltimore", "zip_code": "21211", "country": "US", "state": "MD", "display_address": ["211 West 28 St", "Baltimore, MD 21211"]}, "phone": "+14438351877", "display_phone": "(443) 835-1877", "distance": 1673.3107007484844}, {"id": "W4XSmrr_qq89iKMQUniGPA", "alias": "7-eleven-baltimore-3", "name": "7-Eleven", "image_url": "https://s3-media2.fl.yelpcdn.com/bphoto/0IKgzel0X5JDPWV9Geg7Lw/o.jpg", "is_closed": false, "url": "https://www.yelp.com/biz/7-eleven-baltimore-3?adjust_creative=bdjMmkM5eh5bUOeX_Vuivw&utm_campaign=yelp_api_v3&utm_medium=api_v3_business_search&utm_source=bdjMmkM5eh5bUOeX_Vuivw", "review_count": 2, "categories": [{"alias": "convenience", "title": "Convenience Stores"}, {"alias": "coffee", "title": "Coffee & Tea"}], "rating": 3.0, "coordinates": {"latitude": 39.2901996632982, "longitude": -76.5942737460136}, "transactions": ["delivery", "pickup"], "price": "$", "location": {"address1": "100 S Broadway", "address2": "", "address3": "", "city": "Baltimore", "zip_code": "21231", "country": "US", "state": "MD", "display_address": ["100 S Broadway", "Baltimore, MD 21231"]}, "phone": "+14102764090", "display_phone": "(410) 276-4090", "distance": 2473.5650078917724}, {"id": "dpXLQqXPiHBwTqWlqyPD6g", "alias": "gopuff-towson", "name": "GoPuff", "image_url": "", "is_closed": false, "url": "https://www.yelp.com/biz/gopuff-towson?adjust_creative=bdjMmkM5eh5bUOeX_Vuivw&utm_campaign=yelp_api_v3&utm_medium=api_v3_business_search&utm_source=bdjMmkM5eh5bUOeX_Vuivw", "review_count": 2, "categories": [{"alias": "restaurants", "title": "Restaurants"}], "rating": 1.0, "coordinates": {"latitude": 39.4007, "longitude": -76.57411}, "transactions": ["delivery"], "location": {"address1": "1030 Cromwell Bridge Rd", "address2": "", "address3": null, "city": "Towson", "zip_code": "21286", "country": "US", "state": "MD", "display_address": ["1030 Cromwell Bridge Rd", "Towson, MD 21286"]}, "phone": "+18554007833", "display_phone": "(855) 400-7833", "distance": 10595.93410745059}, {"id": "U5OhoEM4uionoPjR2vpi_Q", "alias": "7-eleven-baltimore-32", "name": "7-Eleven", "image_url": "https://s3-media3.fl.yelpcdn.com/bphoto/CH2vK3zU8UQkuZ2Xo13M1A/o.jpg", "is_closed": false, "url": "https://www.yelp.com/biz/7-eleven-baltimore-32?adjust_creative=bdjMmkM5eh5bUOeX_Vuivw&utm_campaign=yelp_api_v3&utm_medium=api_v3_business_search&utm_source=bdjMmkM5eh5bUOeX_Vuivw", "review_count": 6, "categories": [{"alias": "convenience", "title": "Convenience Stores"}, {"alias": "coffee", "title": "Coffee & Tea"}], "rating": 1.5, "coordinates": {"latitude": 39.2884278672812, "longitude": -76.613853}, "transactions": ["delivery", "pickup"], "price": "$", "location": {"address1": "22 Light St", "address2": "", "address3": "", "city": "Baltimore", "zip_code": "21202", "country": "US", "state": "MD", "display_address": ["22 Light St", "Baltimore, MD 21202"]}, "phone": "+14102441737", "display_phone": "(410) 244-1737", "distance": 2356.035249428202}, {"id": "0VzgKsXjG84Or-3XPL2cCQ", "alias": "7-eleven-baltimore-94", "name": "7-Eleven", "image_url": "https://s3-media3.fl.yelpcdn.com/bphoto/pwHjo4vavBSy5mEwv7JCAw/o.jpg", "is_closed": false, "url": "https://www.yelp.com/biz/7-eleven-baltimore-94?adjust_creative=bdjMmkM5eh5bUOeX_Vuivw&utm_campaign=yelp_api_v3&utm_medium=api_v3_business_search&utm_source=bdjMmkM5eh5bUOeX_Vuivw", "review_count": 3, "categories": [{"alias": "convenience", "title": "Convenience Stores"}, {"alias": "coffee", "title": "Coffee & Tea"}], "rating": 3.7, "coordinates": {"latitude": 39.3754035900379, "longitude": -76.5081453323364}, "transactions": ["delivery", "pickup"], "price": "$", "location": {"address1": "8002 Belair Rd", "address2": null, "address3": null, "city": "Baltimore", "zip_code": "21236", "country": "US", "state": "MD", "display_address": ["8002 Belair Rd", "Baltimore, MD 21236"]}, "phone": "+14106612555", "display_phone": "(410) 661-2555", "distance": 11372.332867745845}, {"id": "ngZvhL4kssxG_aLNwNJaZA", "alias": "red-robin-gourmet-burgers-and-brews-columbia-3", "name": "Red Robin Gourmet Burgers and Brews", "image_url": "https://s3-media2.fl.yelpcdn.com/bphoto/TUDv509VR-nRIKw8YuOX_g/o.jpg", "is_closed": false, "url": "https://www.yelp.com/biz/red-robin-gourmet-burgers-and-brews-columbia-3?adjust_creative=bdjMmkM5eh5bUOeX_Vuivw&utm_campaign=yelp_api_v3&utm_medium=api_v3_business_search&utm_source=bdjMmkM5eh5bUOeX_Vuivw", "review_count": 313, "categories": [{"alias": "burgers", "title": "Burgers"}, {"alias": "tradamerican", "title": "American"}], "rating": 3.1, "coordinates": {"latitude": 39.19699, "longitude": -76.80924053464514}, "transactions": ["delivery", "pickup"], "price": "$$", "location": {"address1": "8640 Snowden River Pkwy", "address2": "", "address3": "", "city": "Columbia", "zip_code": "21045", "country": "US", "state": "MD", "display_address": ["8640 Snowden River Pkwy", "Columbia, MD 21045"]}, "phone": "+14103120214", "display_phone": "(410) 312-0214", "distance": 21285.57411843431}, {"id": "C6juO_U_w_eNrUF3ap0tIg", "alias": "7-eleven-baltimore-13", "name": "7-Eleven", "image_url": "https://s3-media3.fl.yelpcdn.com/bphoto/0XgDZepYBYYHVcHMTDp-Hw/o.jpg", "is_closed": false, "url": "https://www.yelp.com/biz/7-eleven-baltimore-13?adjust_creative=bdjMmkM5eh5bUOeX_Vuivw&utm_campaign=yelp_api_v3&utm_medium=api_v3_business_search&utm_source=bdjMmkM5eh5bUOeX_Vuivw", "review_count": 3, "categories": [{"alias": "convenience", "title": "Convenience Stores"}, {"alias": "coffee", "title": "Coffee & Tea"}], "rating": 3.3, "coordinates": {"latitude": 39.3466504852511, "longitude": -76.5667381882668}, "transactions": ["delivery", "pickup"], "price": "$", "location": {"address1": "4918 Harford Rd", "address2": "", "address3": "", "city": "Baltimore", "zip_code": "21214", "country": "US", "state": "MD", "display_address": ["4918 Harford Rd", "Baltimore, MD 21214"]}, "phone": "+14104441513", "display_phone": "(410) 444-1513", "distance": 5522.664163844651}, {"id": "_FmyoH8WXOHaQv4-99FmwA", "alias": "pitango-gelato-baltimore", "name": "Pitango Gelato", "image_url": "https://s3-media1.fl.yelpcdn.com/bphoto/XN_8kLWiKy0MRNuU1mTMKA/o.jpg", "is_closed": false, "url": "https://www.yelp.com/biz/pitango-gelato-baltimore?adjust_creative=bdjMmkM5eh5bUOeX_Vuivw&utm_campaign=yelp_api_v3&utm_medium=api_v3_business_search&utm_source=bdjMmkM5eh5bUOeX_Vuivw", "review_count": 756, "categories": [{"alias": "icecream", "title": "Ice Cream & Frozen Yogurt"}, {"alias": "coffee", "title": "Coffee & Tea"}, {"alias": "gelato", "title": "Gelato"}], "rating": 4.5, "coordinates": {"latitude": 39.282347547047, "longitude": -76.593588903981}, "transactions": ["delivery", "pickup"], "price": "$$", "location": {"address1": "802 S Broadway", "address2": "", "address3": "", "city": "Baltimore", "zip_code": "21231", "country": "US", "state": "MD", "display_address": ["802 S Broadway", "Baltimore, MD 21231"]}, "phone": "+14102360741", "display_phone": "(410) 236-0741", "distance": 3277.2442884426796}, {"id": "KrcImDmoFm6zk7_I68R4XQ", "alias": "7-eleven-pikesville-2", "name": "7-Eleven", "image_url": "https://s3-media3.fl.yelpcdn.com/bphoto/HI8CJwa68AZviUGn4xORJA/o.jpg", "is_closed": false, "url": "https://www.yelp.com/biz/7-eleven-pikesville-2?adjust_creative=bdjMmkM5eh5bUOeX_Vuivw&utm_campaign=yelp_api_v3&utm_medium=api_v3_business_search&utm_source=bdjMmkM5eh5bUOeX_Vuivw", "review_count": 9, "categories": [{"alias": "coffee", "title": "Coffee & Tea"}, {"alias": "convenience", "title": "Convenience Stores"}], "rating": 4.6, "coordinates": {"latitude": 39.3744309, "longitude": -76.7233432}, "transactions": ["delivery", "pickup"], "price": "$", "location": {"address1": "1204 Reisterstown Rd", "address2": "", "address3": "", "city": "Pikesville", "zip_code": "21208", "country": "US", "state": "MD", "display_address": ["1204 Reisterstown Rd", "Pikesville, MD 21208"]}, "phone": "+14104155489", "display_phone": "(410) 415-5489", "distance": 12210.381196624972}, {"id": "dS2jhRW7sQZiur6OeU1xFA", "alias": "camp-meade-liquors-linthicum-heights", "name": "Camp Meade Liquors", "image_url": "https://s3-media3.fl.yelpcdn.com/bphoto/X_-B9-9R8i4NPBzSDyDphQ/o.jpg", "is_closed": false, "url": "https://www.yelp.com/biz/camp-meade-liquors-linthicum-heights?adjust_creative=bdjMmkM5eh5bUOeX_Vuivw&utm_campaign=yelp_api_v3&utm_medium=api_v3_business_search&utm_source=bdjMmkM5eh5bUOeX_Vuivw", "review_count": 6, "categories": [{"alias": "beer_and_wine", "title": "Beer, Wine & Spirits"}], "rating": 3.7, "coordinates": {"latitude": 39.21419, "longitude": -76.64471}, "transactions": ["delivery", "pickup"], "price": "$", "location": {"address1": "452 N Camp Meade Rd", "address2": "Ste D", "address3": null, "city": "Linthicum Heights", "zip_code": "21090", "country": "US", "state": "MD", "display_address": ["452 N Camp Meade Rd", "Ste D", "Linthicum Heights, MD 21090"]}, "phone": "+14106364100", "display_phone": "(410) 636-4100", "distance": 11027.706277636431}, {"id": "1ErKovjSwcU0GU-PQHalYg", "alias": "walgreens-baltimore-13", "name": "Walgreens", "image_url": "https://s3-media2.fl.yelpcdn.com/bphoto/LpKMsoUTsk-0lsG0UAth7w/o.jpg", "is_closed": false, "url": "https://www.yelp.com/biz/walgreens-baltimore-13?adjust_creative=bdjMmkM5eh5bUOeX_Vuivw&utm_campaign=yelp_api_v3&utm_medium=api_v3_business_search&utm_source=bdjMmkM5eh5bUOeX_Vuivw", "review_count": 25, "categories": [{"alias": "drugstores", "title": "Drugstores"}, {"alias": "cosmetics", "title": "Cosmetics & Beauty Supply"}, {"alias": "convenience", "title": "Convenience Stores"}], "rating": 2.7, "coordinates": {"latitude": 39.3956659, "longitude": -76.5231739}, "transactions": [], "price": "$$", "location": {"address1": "9616 Harford Rd", "address2": "", "address3": "", "city": "Baltimore", "zip_code": "21234", "country": "US", "state": "MD", "display_address": ["9616 Harford Rd", "Baltimore, MD 21234"]}, "phone": "+14106637957", "display_phone": "(410) 663-7957", "distance": 12114.577220191977}, {"id": "XdTk-9tHuzKOS1fyEmNfMQ", "alias": "7-eleven-cockeysville-3", "name": "7-Eleven", "image_url": "https://s3-media4.fl.yelpcdn.com/bphoto/5mWuOWftqZ8ZPAVOhr5Sdw/o.jpg", "is_closed": false, "url": "https://www.yelp.com/biz/7-eleven-cockeysville-3?adjust_creative=bdjMmkM5eh5bUOeX_Vuivw&utm_campaign=yelp_api_v3&utm_medium=api_v3_business_search&utm_source=bdjMmkM5eh5bUOeX_Vuivw", "review_count": 3, "categories": [{"alias": "convenience", "title": "Convenience Stores"}, {"alias": "coffee", "title": "Coffee & Tea"}], "rating": 4.7, "coordinates": {"latitude": 39.4654331030456, "longitude": -76.6364139318466}, "transactions": ["delivery", "pickup"], "price": "$", "location": {"address1": "10045 York Rd", "address2": "Ste 47", "address3": null, "city": "Cockeysville", "zip_code": "21030", "country": "US", "state": "MD", "display_address": ["10045 York Rd", "Ste 47", "Cockeysville, MD 21030"]}, "phone": "+14106676668", "display_phone": "(410) 667-6668", "distance": 17521.378813653475}, {"id": "Unz-3wQgdX1f5WYsEw9JfA", "alias": "7-eleven-lutherville", "name": "7-Eleven", "image_url": "https://s3-media4.fl.yelpcdn.com/bphoto/v8bUR1SqyK2NduH_UAxPdQ/o.jpg", "is_closed": false, "url": "https://www.yelp.com/biz/7-eleven-lutherville?adjust_creative=bdjMmkM5eh5bUOeX_Vuivw&utm_campaign=yelp_api_v3&utm_medium=api_v3_business_search&utm_source=bdjMmkM5eh5bUOeX_Vuivw", "review_count": 3, "categories": [{"alias": "convenience", "title": "Convenience Stores"}, {"alias": "coffee", "title": "Coffee & Tea"}], "rating": 4.0, "coordinates": {"latitude": 39.422957676205, "longitude": -76.6184538}, "transactions": ["delivery", "pickup"], "price": "$", "location": {"address1": "1538 York Rd", "address2": "", "address3": "", "city": "Lutherville", "zip_code": "21093", "country": "US", "state": "MD", "display_address": ["1538 York Rd", "Lutherville, MD 21093"]}, "phone": "+14102965171", "display_phone": "(410) 296-5171", "distance": 12665.561136261835}, {"id": "7YccX0KXlIu8gA5z7SKwUQ", "alias": "7-eleven-columbia-5", "name": "7-Eleven", "image_url": "https://s3-media2.fl.yelpcdn.com/bphoto/PsouQvHvgGumzUH8rJ1A7Q/o.jpg", "is_closed": false, "url": "https://www.yelp.com/biz/7-eleven-columbia-5?adjust_creative=bdjMmkM5eh5bUOeX_Vuivw&utm_campaign=yelp_api_v3&utm_medium=api_v3_business_search&utm_source=bdjMmkM5eh5bUOeX_Vuivw", "review_count": 2, "categories": [{"alias": "coffee", "title": "Coffee & Tea"}, {"alias": "convenience", "title": "Convenience Stores"}], "rating": 5.0, "coordinates": {"latitude": 39.20947, "longitude": -76.80103}, "transactions": ["delivery", "pickup"], "location": {"address1": "8251 Snowden River Pkwy", "address2": null, "address3": null, "city": "Columbia", "zip_code": "21045", "country": "US", "state": "MD", "display_address": ["8251 Snowden River Pkwy", "Columbia, MD 21045"]}, "phone": "+14104616325", "display_phone": "(410) 461-6325", "distance": 19938.739985372955}, {"id": "Whsvyq9l-9ZXmYrAQGE8aA", "alias": "7-eleven-baltimore-8", "name": "7-Eleven", "image_url": "https://s3-media3.fl.yelpcdn.com/bphoto/tMHopOaLjyMwThjYRoQ0Hw/o.jpg", "is_closed": false, "url": "https://www.yelp.com/biz/7-eleven-baltimore-8?adjust_creative=bdjMmkM5eh5bUOeX_Vuivw&utm_campaign=yelp_api_v3&utm_medium=api_v3_business_search&utm_source=bdjMmkM5eh5bUOeX_Vuivw", "review_count": 5, "categories": [{"alias": "convenience", "title": "Convenience Stores"}, {"alias": "coffee", "title": "Coffee & Tea"}], "rating": 2.4, "coordinates": {"latitude": 39.3519519835143, "longitude": -76.6845495253801}, "transactions": ["delivery", "pickup"], "price": "$", "location": {"address1": "5512 Park Heights Ave", "address2": "", "address3": "", "city": "Baltimore", "zip_code": "21215", "country": "US", "state": "MD", "display_address": ["5512 Park Heights Ave", "Baltimore, MD 21215"]}, "phone": "+14103676363", "display_phone": "(410) 367-6363", "distance": 8042.8347514041325}, {"id": "yvThSS9-XD4WPSy9xCMy2A", "alias": "7-eleven-baltimore-71", "name": "7-Eleven", "image_url": "https://s3-media3.fl.yelpcdn.com/bphoto/WArYz9raVD_SnCWbf9CKpw/o.jpg", "is_closed": false, "url": "https://www.yelp.com/biz/7-eleven-baltimore-71?adjust_creative=bdjMmkM5eh5bUOeX_Vuivw&utm_campaign=yelp_api_v3&utm_medium=api_v3_business_search&utm_source=bdjMmkM5eh5bUOeX_Vuivw", "review_count": 2, "categories": [{"alias": "convenience", "title": "Convenience Stores"}, {"alias": "servicestations", "title": "Gas Stations"}, {"alias": "coffee", "title": "Coffee & Tea"}], "rating": 3.0, "coordinates": {"latitude": 39.2781612, "longitude": -76.4869198}, "transactions": ["delivery", "pickup"], "price": "$", "location": {"address1": "3003 N Point Rd", "address2": null, "address3": null, "city": "Baltimore", "zip_code": "21222", "country": "US", "state": "MD", "display_address": ["3003 N Point Rd", "Baltimore, MD 21222"]}, "phone": "+14102829262", "display_phone": "(410) 282-9262", "distance": 11064.19096861424}, {"id": "r49N1r_bMbdDYjIUJib7xA", "alias": "7-eleven-elkridge-2", "name": "7-Eleven", "image_url": "https://s3-media3.fl.yelpcdn.com/bphoto/kpEpQk_tPJ1CJORKmL1wcQ/o.jpg", "is_closed": false, "url": "https://www.yelp.com/biz/7-eleven-elkridge-2?adjust_creative=bdjMmkM5eh5bUOeX_Vuivw&utm_campaign=yelp_api_v3&utm_medium=api_v3_business_search&utm_source=bdjMmkM5eh5bUOeX_Vuivw", "review_count": 2, "categories": [{"alias": "convenience", "title": "Convenience Stores"}, {"alias": "coffee", "title": "Coffee & Tea"}], "rating": 3.0, "coordinates": {"latitude": 39.2019132, "longitude": -76.7348369}, "transactions": ["delivery", "pickup"], "price": "$", "location": {"address1": "6510 Washington Blvd", "address2": "", "address3": null, "city": "Elkridge", "zip_code": "21075", "country": "US", "state": "MD", "display_address": ["6510 Washington Blvd", "Elkridge, MD 21075"]}, "phone": "+14103798641", "display_phone": "(410) 379-8641", "distance": 16120.353588762337}, {"id": "HlgfX9RuT_Ip2F3lKXmvpw", "alias": "7-eleven-sparrows-point-3", "name": "7-Eleven", "image_url": "", "is_closed": false, "url": "https://www.yelp.com/biz/7-eleven-sparrows-point-3?adjust_creative=bdjMmkM5eh5bUOeX_Vuivw&utm_campaign=yelp_api_v3&utm_medium=api_v3_business_search&utm_source=bdjMmkM5eh5bUOeX_Vuivw", "review_count": 1, "categories": [{"alias": "convenience", "title": "Convenience Stores"}, {"alias": "coffee", "title": "Coffee & Tea"}], "rating": 1.0, "coordinates": {"latitude": 39.233255, "longitude": -76.4568917}, "transactions": ["delivery", "pickup"], "price": "$", "location": {"address1": "5230 N Point Blvd", "address2": null, "address3": null, "city": "Sparrows Point", "zip_code": "21219", "country": "US", "state": "MD", "display_address": ["5230 N Point Blvd", "Sparrows Point, MD 21219"]}, "phone": "+14103880558", "display_phone": "(410) 388-0558", "distance": 15588.834609375092}, {"id": "ldTMYBH7hMiNNbtXwk8lzQ", "alias": "7-eleven-baltimore-45", "name": "7-Eleven", "image_url": "", "is_closed": false, "url": "https://www.yelp.com/biz/7-eleven-baltimore-45?adjust_creative=bdjMmkM5eh5bUOeX_Vuivw&utm_campaign=yelp_api_v3&utm_medium=api_v3_business_search&utm_source=bdjMmkM5eh5bUOeX_Vuivw", "review_count": 5, "categories": [{"alias": "convenience", "title": "Convenience Stores"}, {"alias": "servicestations", "title": "Gas Stations"}, {"alias": "coffee", "title": "Coffee & Tea"}], "rating": 2.4, "coordinates": {"latitude": 39.27539, "longitude": -76.6416235}, "transactions": ["delivery", "pickup"], "price": "$", "location": {"address1": "1769 Washington Blvd", "address2": "", "address3": "", "city": "Baltimore", "zip_code": "21230", "country": "US", "state": "MD", "display_address": ["1769 Washington Blvd", "Baltimore, MD 21230"]}, "phone": "+14108371061", "display_phone": "(410) 837-1061", "distance": 4697.7480389047405}, {"id": "vfyCW9p3hbSg-_Syp_gYTw", "alias": "7-eleven-baltimore-65", "name": "7-Eleven", "image_url": "", "is_closed": false, "url": "https://www.yelp.com/biz/7-eleven-baltimore-65?adjust_creative=bdjMmkM5eh5bUOeX_Vuivw&utm_campaign=yelp_api_v3&utm_medium=api_v3_business_search&utm_source=bdjMmkM5eh5bUOeX_Vuivw", "review_count": 1, "categories": [{"alias": "convenience", "title": "Convenience Stores"}, {"alias": "coffee", "title": "Coffee & Tea"}], "rating": 1.0, "coordinates": {"latitude": 39.3165979019905, "longitude": -76.7375666601878}, "transactions": ["delivery", "pickup"], "price": "$", "location": {"address1": "1808 Woodlawn Ave", "address2": null, "address3": null, "city": "Baltimore", "zip_code": "21207", "country": "US", "state": "MD", "display_address": ["1808 Woodlawn Ave", "Baltimore, MD 21207"]}, "phone": "+14102985054", "display_phone": "(410) 298-5054", "distance": 11087.198163021436}, {"id": "WbdpTzYAY3QhH9I67ra1HA", "alias": "7-eleven-baltimore-72", "name": "7-Eleven", "image_url": "https://s3-media2.fl.yelpcdn.com/bphoto/cnx6wXMFIxrv2hKs3bP1Ow/o.jpg", "is_closed": false, "url": "https://www.yelp.com/biz/7-eleven-baltimore-72?adjust_creative=bdjMmkM5eh5bUOeX_Vuivw&utm_campaign=yelp_api_v3&utm_medium=api_v3_business_search&utm_source=bdjMmkM5eh5bUOeX_Vuivw", "review_count": 3, "categories": [{"alias": "convenience", "title": "Convenience Stores"}, {"alias": "coffee", "title": "Coffee & Tea"}], "rating": 2.0, "coordinates": {"latitude": 39.2380972109798, "longitude": -76.6951046884059}, "transactions": ["delivery", "pickup"], "price": "$", "location": {"address1": "1313 Francis Ave", "address2": "", "address3": "", "city": "Baltimore", "zip_code": "21227", "country": "US", "state": "MD", "display_address": ["1313 Francis Ave", "Baltimore, MD 21227"]}, "phone": "+14102470592", "display_phone": "(410) 247-0592", "distance": 10841.851429333996}, {"id": "Wq8jJ1X-L36OiV4seDkaYw", "alias": "7-eleven-baltimore-26", "name": "7-Eleven", "image_url": "https://s3-media4.fl.yelpcdn.com/bphoto/nEnF7Pbto1npYRk9OSWfCQ/o.jpg", "is_closed": false, "url": "https://www.yelp.com/biz/7-eleven-baltimore-26?adjust_creative=bdjMmkM5eh5bUOeX_Vuivw&utm_campaign=yelp_api_v3&utm_medium=api_v3_business_search&utm_source=bdjMmkM5eh5bUOeX_Vuivw", "review_count": 5, "categories": [{"alias": "convenience", "title": "Convenience Stores"}, {"alias": "coffee", "title": "Coffee & Tea"}], "rating": 2.6, "coordinates": {"latitude": 39.2938614405871, "longitude": -76.7303877911199}, "transactions": ["delivery", "pickup"], "price": "$", "location": {"address1": "1114 Ingleside Av", "address2": null, "address3": null, "city": "Baltimore", "zip_code": "21207", "country": "US", "state": "MD", "display_address": ["1114 Ingleside Av", "Baltimore, MD 21207"]}, "phone": "+14107475399", "display_phone": "(410) 747-5399", "distance": 10581.370032962634}, {"id": "pGPugxXaBn4_7e2eUY4VPA", "alias": "7-eleven-catonsville-3", "name": "7-Eleven", "image_url": "https://s3-media1.fl.yelpcdn.com/bphoto/0YmU274HbvFRFp6M2kXn-Q/o.jpg", "is_closed": false, "url": "https://www.yelp.com/biz/7-eleven-catonsville-3?adjust_creative=bdjMmkM5eh5bUOeX_Vuivw&utm_campaign=yelp_api_v3&utm_medium=api_v3_business_search&utm_source=bdjMmkM5eh5bUOeX_Vuivw", "review_count": 4, "categories": [{"alias": "convenience", "title": "Convenience Stores"}, {"alias": "coffee", "title": "Coffee & Tea"}], "rating": 2.8, "coordinates": {"latitude": 39.2731536, "longitude": -76.7526651}, "transactions": ["delivery", "pickup"], "price": "$", "location": {"address1": "1611 Edmondson Ave", "address2": null, "address3": null, "city": "Catonsville", "zip_code": "21228", "country": "US", "state": "MD", "display_address": ["1611 Edmondson Ave", "Catonsville, MD 21228"]}, "phone": "+14107884441", "display_phone": "(410) 788-4441", "distance": 12996.726393567416}, {"id": "plLY3F-oTVirLV8uerZOXQ", "alias": "7-eleven-elkridge-3", "name": "7-Eleven", "image_url": "", "is_closed": false, "url": "https://www.yelp.com/biz/7-eleven-elkridge-3?adjust_creative=bdjMmkM5eh5bUOeX_Vuivw&utm_campaign=yelp_api_v3&utm_medium=api_v3_business_search&utm_source=bdjMmkM5eh5bUOeX_Vuivw", "review_count": 1, "categories": [{"alias": "convenience", "title": "Convenience Stores"}, {"alias": "coffee", "title": "Coffee & Tea"}], "rating": 1.0, "coordinates": {"latitude": 39.188869663407, "longitude": -76.792639195919}, "transactions": ["delivery", "pickup"], "price": "$", "location": {"address1": "6590 Old Waterloo Rd", "address2": null, "address3": null, "city": "Elkridge", "zip_code": "21075", "country": "US", "state": "MD", "display_address": ["6590 Old Waterloo Rd", "Elkridge, MD 21075"]}, "phone": "+14107995169", "display_phone": "(410) 799-5169", "distance": 20717.875905179484}, {"id": "f_5JsfzbjkQPWoIaI6hvOw", "alias": "7-eleven-towson", "name": "7-Eleven", "image_url": "", "is_closed": false, "url": "https://www.yelp.com/biz/7-eleven-towson?adjust_creative=bdjMmkM5eh5bUOeX_Vuivw&utm_campaign=yelp_api_v3&utm_medium=api_v3_business_search&utm_source=bdjMmkM5eh5bUOeX_Vuivw", "review_count": 6, "categories": [{"alias": "convenience", "title": "Convenience Stores"}, {"alias": "coffee", "title": "Coffee & Tea"}], "rating": 2.0, "coordinates": {"latitude": 39.3992867255242, "longitude": -76.6029185056686}, "transactions": ["delivery"], "price": "$", "location": {"address1": "321 York Rd", "address2": "", "address3": "", "city": "Towson", "zip_code": "21204", "country": "US", "state": "MD", "display_address": ["321 York Rd", "Towson, MD 21204"]}, "phone": "+14108232461", "display_phone": "(410) 823-2461", "distance": 10021.418155940344}, {"id": "e4aPVutSt5Y5rZa-v2-TvA", "alias": "7-eleven-hanover", "name": "7-Eleven", "image_url": "https://s3-media2.fl.yelpcdn.com/bphoto/qX8afFAqP5x3RWlp7vwN8w/o.jpg", "is_closed": false, "url": "https://www.yelp.com/biz/7-eleven-hanover?adjust_creative=bdjMmkM5eh5bUOeX_Vuivw&utm_campaign=yelp_api_v3&utm_medium=api_v3_business_search&utm_source=bdjMmkM5eh5bUOeX_Vuivw", "review_count": 3, "categories": [{"alias": "convenience", "title": "Convenience Stores"}, {"alias": "coffee", "title": "Coffee & Tea"}], "rating": 3.0, "coordinates": {"latitude": 39.1588731637158, "longitude": -76.7143227159977}, "transactions": ["delivery", "pickup"], "price": "$", "location": {"address1": "1401 Dorsey Rd", "address2": "", "address3": "", "city": "Hanover", "zip_code": "21076", "country": "US", "state": "MD", "display_address": ["1401 Dorsey Rd", "Hanover, MD 21076"]}, "phone": "+14108595730", "display_phone": "(410) 859-5730", "distance": 19025.149137745444}]